City_ID,City,Cloudiness,Country,Date,Humidity,Lat,Lng,Max_Temp,Wind_Speed
2122614,Okha,100,RU,1612330021,84,53.5739,142.9478,-21.14,20.2
5106841,Albany,98,US,1612329967,87,42.6001,-73.9662,27,9.33
3466704,Castro,96,BR,1612330021,94,-24.7911,-50.0119,64.54,3.2
1015776,Bredasdorp,0,ZA,1612330021,94,-34.5322,20.0403,60.8,2.3
2961459,Skibbereen,0,IE,1612330021,93,51.55,-9.2667,37.4,9.22
3466165,Cidreira,100,BR,1612330021,89,-30.1811,-50.2056,77.16,13.29
6255012,Flinders,20,AU,1612329783,49,-34.5833,150.8552,73.99,11.5
4030556,Rikitea,56,PF,1612329790,77,-23.1203,-134.9692,78.04,17.81
6201424,Mataura,72,NZ,1612330022,53,-46.1927,168.8643,61.97,7.11
1735106,George Town,20,MY,1612330022,66,5.4112,100.3354,89.01,10.36
4032243,Vaini,90,TO,1612330022,94,-21.2,-175.2,78.8,5.75
3839307,Rawson,0,AR,1612329764,36,-43.3002,-65.1023,72.73,14.83
3372964,Lagoa,49,PT,1612330022,69,39.05,-27.9833,55.35,34.11
3366880,Hermanus,0,ZA,1612329900,95,-34.4187,19.2345,63,5.7
2629833,Husavik,0,IS,1612329723,78,66.0449,-17.3389,8.6,3.44
1630789,Pontianak,75,ID,1612330022,66,-0.0333,109.3333,87.8,11.5
2032614,Baruun-Urt,0,MN,1612330022,87,46.6806,113.2792,3.18,13.51
3453150,Ponta Porã,100,BR,1612330023,92,-22.5361,-55.7256,70.38,6.51
4951594,Southbridge,90,US,1612330023,93,42.0751,-72.0334,30.99,8.52
2163355,Hobart,20,AU,1612330002,45,-42.8794,147.3294,68,12.66
4035715,Avarua,1,CK,1612330023,78,-21.2078,-159.775,80.6,11.5
4148207,Bloomingdale,1,US,1612330023,93,27.8936,-82.2404,50,7.36
3369157,Cape Town,0,ZA,1612329936,82,-33.9258,18.4232,68,16.11
2208248,Kaitangata,45,NZ,1612330023,65,-46.2817,169.8464,60.01,17
2018735,Nyurba,100,RU,1612330023,85,63.2842,118.3319,-23.49,9.71
3874787,Punta Arenas,75,CL,1612330023,67,-53.15,-70.9167,55.4,28.77
1726449,Basco,92,PH,1612330024,78,20.4487,121.9702,72.19,28.01
3420846,Qaqortoq,0,GL,1612330024,48,60.7167,-46.0333,15.8,9.22
5924351,Clyde River,1,CA,1612330024,75,70.4692,-68.5914,-31,2.3
2126785,Belaya Gora,50,RU,1612330024,87,68.5333,146.4167,-22.4,1.66
1106643,Quatre Cocos,75,MU,1612330024,70,-20.2078,57.7625,84.99,11.5
6185377,Yellowknife,90,CA,1612329876,70,62.456,-114.3525,-14.8,8.05
2063036,Port Lincoln,97,AU,1612330024,57,-34.7333,135.8667,70.38,10.65
3471451,Arraial do Cabo,0,BR,1612329979,88,-22.9661,-42.0278,75.69,22.62
3831208,Qaanaaq,100,GL,1612330024,84,77.484,-69.3632,-13.02,1.41
4231997,Avera,1,US,1612330024,48,33.194,-82.5271,37.4,13.8
935616,Le Port,40,RE,1612330025,66,-20.9373,55.2919,86,16.11
2171099,Codrington,9,AU,1612330025,60,-38.2667,141.9667,67.26,12.06
5848280,Kapaa,20,US,1612330025,73,22.0752,-159.319,73.4,14.97
1717787,Catuday,2,PH,1612330025,63,16.2923,119.8062,80.82,6.93
1529651,Altay,75,CN,1612330025,85,47.8667,88.1167,20.5,2.04
3117164,Mataró,37,ES,1612330025,69,41.5421,2.4445,59,10.76
4111382,Forrest City,1,US,1612330026,86,35.0081,-90.7898,30.99,2.91
2022572,Khatanga,100,RU,1612330026,90,71.9667,102.5,-13.11,3.18
4020109,Atuona,31,PF,1612329978,76,-9.8,-139.0333,78.46,11.68
3386467,Terra Santa,87,BR,1612330026,95,-2.1042,-56.4869,74.98,3
2126123,Chokurdakh,67,RU,1612330026,91,70.6333,147.9167,-5.67,7.14
5557293,Sitka,20,US,1612330026,86,57.0531,-135.33,30.2,6.15
2110227,Butaritari,89,KI,1612330026,83,3.0707,172.7902,81.97,17.67
3833367,Ushuaia,90,AR,1612330027,93,-54.8,-68.3,46.4,26.46
2264557,Ponta do Sol,40,PT,1612330027,79,32.6667,-17.1,59,1.01
1507390,Dikson,3,RU,1612330027,86,73.5069,80.5464,-24.81,14.23
2071860,Esperance,90,AU,1612330027,42,-33.8667,121.9,82.4,19.57
2121025,Srednekolymsk,97,RU,1612330027,87,67.45,153.6833,-22.85,4.38
2074865,Carnarvon,90,AU,1612330027,100,-24.8667,113.6333,82.4,23.02
5122534,Jamestown,90,US,1612329815,74,42.097,-79.2353,28,16.11
2075265,Busselton,0,AU,1612330027,67,-33.65,115.3333,79,7
4031742,Egvekinot,100,RU,1612330027,89,66.3167,-179.1667,-5.33,16.08
5972762,Hay River,100,CA,1612330027,77,60.8156,-115.7999,-13,8.05
3883457,Lebu,0,CL,1612330028,85,-37.6167,-73.65,56.79,10.07
606531,Boden,90,SE,1612330028,100,65.8252,21.6886,14,4.61
3521108,Progreso,1,MX,1612330028,72,21.2833,-89.6667,60.8,3.98
2641528,Creetown,90,GB,1612330028,93,54.9015,-4.3792,35.6,19.57
1651810,Airai,84,TL,1612330028,91,-8.9266,125.4092,69.82,5.12
5855927,Hilo,1,US,1612330019,73,19.7297,-155.09,73.4,4.61
3608828,Iralaya,0,HN,1612330028,74,15,-83.2333,73.67,16.28
1726994,Bantilan,67,PH,1612330029,76,14.7519,121.6656,78.67,17.4
86049,Jalu,57,LY,1612330029,58,29.0331,21.5482,52.79,9.01
1106835,Thaba-Tseka,100,LS,1612330029,85,-29.522,28.6084,54.1,1.61
3723593,Jérémie,47,HT,1612330029,82,18.65,-74.1167,74.59,10.04
1037125,Montepuez,94,MZ,1612330029,88,-13.1256,38.9997,73.18,0.6
6165406,Thompson,90,CA,1612329839,92,55.7435,-97.8558,15.8,6.91
2147914,Sunbury,20,AU,1612330029,41,-37.5833,144.7333,78.01,10.36
5870133,Nome,90,US,1612329970,56,64.5011,-165.4064,10.4,13.8
601551,Akdepe,0,TM,1612330029,75,42.0551,59.3788,37.4,9.22
6167817,Torbay,90,CA,1612330029,86,47.6666,-52.7314,30,23.02
3372472,Vila Franca do Campo,40,PT,1612330030,76,37.7167,-25.4333,53.6,18.41
3441890,Departamento de Maldonado,40,UY,1612330030,94,-34.6667,-54.9167,71.6,5.75
1504212,Kataysk,44,RU,1612330030,93,56.289,62.5841,9.34,5.95
6096551,Pangnirtung,100,CA,1612330030,73,66.1451,-65.7125,-15.92,0.81
1803936,Wuwei,0,CN,1612329757,53,37.9281,102.6414,35.1,5.79
2121385,Severo-Kuril'sk,98,RU,1612330030,89,50.6789,156.125,20.12,37.07
4031574,Provideniya,100,RU,1612330030,91,64.3833,-173.3,5.31,15.35
1651103,Atambua,97,ID,1612330030,80,-9.1061,124.8925,78.12,4.18
1855540,Naze,75,JP,1612330030,55,28.3667,129.4833,60.8,11.5
1736302,Jitra,20,MY,1612330031,55,6.2681,100.4217,87.8,10.36
3416888,Grindavik,40,IS,1612330031,60,63.8424,-22.4338,35.6,20.71
921900,Dzaoudzi,75,YT,1612330031,83,-12.7887,45.2699,82.4,12.66
1282256,Hithadhoo,44,MV,1612330031,69,-0.6,73.0833,82.24,2.86
3414079,Olafsvik,100,IS,1612330031,82,64.8945,-23.7142,34.14,14.54
1633419,Padang,40,ID,1612330031,70,-0.9492,100.3543,86,6.91
3893726,Constitución,1,CL,1612330031,81,-35.3333,-72.4167,58.08,0.83
1855342,Nishihara,40,JP,1612330031,36,26.1842,127.7558,71.6,8.05
3347019,Mossamedes,89,AO,1612330032,78,-15.1961,12.1522,70.9,6.73
6323121,Florianópolis,40,BR,1612330032,94,-27.6146,-48.5012,77,3.44
934649,Cap Malheureux,1,MU,1612330032,67,-19.9842,57.6142,84.99,7
2206939,Bluff,61,NZ,1612330032,68,-46.6,168.3333,56.71,10.65
3094585,Kruszwica,90,PL,1612330032,93,52.6756,18.3313,32,8.05
1274381,Chhabra,33,IN,1612330032,19,24.6667,76.8333,75.58,7.07
3899695,Ancud,0,CL,1612330032,87,-41.8697,-73.8203,53.01,4.61
1490256,Talnakh,96,RU,1612330032,86,69.4865,88.3972,-15.02,0.94
2112309,Katsuura,20,JP,1612330032,37,35.1333,140.3,50,9.22
3465329,Coruripe,71,BR,1612330032,84,-10.1256,-36.1756,76.48,7.9
3424607,Tasiilaq,90,GL,1612330021,93,65.6145,-37.6368,21.2,5.75
2451184,Sikasso,0,ML,1612330033,23,10.9167,-7,65.88,4.9
2209055,Waddān,0,LY,1612330033,93,29.1614,16.139,43,6.64
6089245,Norman Wells,90,CA,1612329980,69,65.282,-126.8329,-18.4,8.05
6144312,Sept-Îles,100,CA,1612329884,93,50.2001,-66.3821,28.4,18.41
6170031,Tuktoyaktuk,1,CA,1612330033,66,69.4541,-133.0374,-41.8,2.3
2122493,Omsukchan,100,RU,1612330034,83,62.5333,155.8,-24.16,6.55
1254709,Tezu,0,IN,1612330034,22,27.9167,96.1667,78.4,4.05
1835848,Seoul,75,KR,1612329806,55,37.5683,126.9778,33.8,11.5
1899102,Nagato,20,JP,1612330034,42,34.3833,131.2,44.6,16.11
3470137,Belmonte,75,BR,1612330034,88,-15.8631,-38.8828,75.2,3.44
5847411,Kahului,20,US,1612329759,68,20.8947,-156.47,73.4,5.75
3372707,Ribeira Grande,46,PT,1612330034,69,38.5167,-28.7,56.3,32.95
866062,Iskateley,100,RU,1612330034,95,67.6803,53.1512,9.25,10.11
3361934,Saldanha,0,ZA,1612330034,88,-33.0117,17.9442,60.8,6.91
4328010,Houma,1,US,1612330034,61,29.5958,-90.7195,46,3.44
3098218,Grudziądz,100,PL,1612330035,97,53.4841,18.7537,32,1.01
5866583,Saint Paul Harbor,100,US,1612329837,96,57.79,-152.4072,33.35,13.94
2618795,Klaksvík,40,FO,1612330035,86,62.2266,-6.589,32,10.36
3421765,Nanortalik,0,GL,1612329979,83,60.1432,-45.2371,14.79,18.9
3430443,Necochea,78,AR,1612330035,97,-38.5473,-58.7368,54,4
1106677,Bambous Virieux,75,MU,1612330035,70,-20.3428,57.7575,84.99,11.5
8079926,Labuhan,72,ID,1612330035,85,-6.8844,112.2051,78.03,22.1
2180815,Tuatapere,75,NZ,1612330035,62,-46.1333,167.6833,59.29,7.23
964432,Port Alfred,7,ZA,1612330035,74,-33.5906,26.891,77,6.82
5882953,Aklavik,100,CA,1612329917,74,68.2191,-135.0107,-36.4,6.22
2121373,Seymchan,100,RU,1612330036,85,62.8833,152.4333,-19.3,5.79
2630299,Hofn,100,IS,1612330036,96,64.2539,-15.2082,30.88,14.76
546105,Nikolskoye,90,RU,1612330036,93,59.7035,30.7861,21.2,13.42
1862505,Hirara,20,JP,1612330036,52,24.8,125.2833,69.8,12.66
778707,Mehamn,20,NO,1612330036,68,71.0357,27.8492,24.8,24.16
286621,Salalah,0,OM,1612330036,41,17.0151,54.0924,75.2,3.44
4004293,Ixtapa,90,MX,1612329896,88,20.7,-105.2,71.6,1.41
5546220,Saint George,75,US,1612330036,66,37.1041,-113.5841,53.6,3.44
1847947,Shingū,20,JP,1612330037,42,33.7333,135.9833,46.4,17.27
1855891,Nakamura,0,JP,1612330037,52,32.9833,132.9333,47.73,8.43
293842,Kiryat Gat,19,IL,1612330037,22,31.61,34.7642,61,6.17
3466980,Caravelas,100,BR,1612330037,88,-17.7125,-39.2481,74.52,4.54
1506268,Gornopravdinsk,69,RU,1612330037,95,60.05,69.9,4.75,5.19
934322,Mahébourg,75,MU,1612330037,70,-20.4081,57.7,84.2,11.5
5282297,Bethel,86,US,1612330037,94,41.3712,-73.414,25,11.36
2123814,Leningradskiy,100,RU,1612330037,85,69.3833,178.4167,-9.67,15.86
2132606,Samarai,79,PG,1612330037,77,-10.6167,150.6667,83.32,12.39
3985710,Cabo San Lucas,20,MX,1612329879,52,22.8909,-109.9124,68,11.5
3652764,Puerto Ayora,81,EC,1612330038,94,-0.7393,-90.3518,77,4
2108502,Honiara,100,SB,1612330038,86,-9.4333,159.95,78.71,10
6061979,Lumsden,20,CA,1612330038,93,50.6501,-104.8678,23,14.97
2524929,Corigliano Calabro,0,IT,1612330038,80,39.595,16.5177,45,5.57
2136825,Isangel,75,VU,1612330038,70,-19.55,169.2667,86,13.8
3984997,San Quintín,100,MX,1612330038,78,30.4833,-115.95,60.91,11.74
4047434,Russell,1,US,1612329838,55,32.3502,-85.1999,37.4,5.75
2477537,Tazmalt,7,DZ,1612330038,61,36.3868,4.3989,52.34,5.48
2514651,Los Llanos de Aridane,90,ES,1612329810,72,28.6585,-17.9182,62.6,6.91
53372,Oodweyne,32,SO,1612330039,27,9.4092,45.064,67.33,15.52
932987,Tsabong,100,BW,1612330039,84,-26.0217,22.401,68.36,12.24
2022129,Kichera,82,RU,1612330039,79,55.9375,110.0997,-12.41,3.87
2142316,Yeppoon,75,AU,1612330039,48,-23.1333,150.7333,86,12.66
3356213,Khorixas,39,NA,1612330039,62,-20.3667,14.9667,65.53,1.52
900056,Nyimba,8,ZM,1612330039,87,-14.5566,30.8149,69.94,3.02
2092164,Lorengau,87,PG,1612330039,79,-2.0226,147.2712,82.76,10.83
6355222,Yulara,27,AU,1612330039,14,-25.2406,130.9889,98.6,4.61
2194098,Ahipara,15,NZ,1612330039,61,-35.1667,173.1667,70.21,6.73
1272140,Dwārka,0,IN,1612330040,57,22.2394,68.9678,74.14,7.14
2098329,Daru,65,PG,1612330040,74,-9.0763,143.2092,85.84,10.07
2729907,Longyearbyen,75,SJ,1612329801,68,78.2186,15.6401,24.8,16.11
1213855,Sibolga,99,ID,1612330040,62,1.7427,98.7792,86.32,6.17
4031637,Lavrentiya,100,RU,1612330040,84,65.5833,-171,1.89,23.31
64013,Bosaso,20,SO,1612330040,69,11.2842,49.1816,75.2,6.91
523048,Nebug,100,RU,1612330040,54,44.1714,39.0036,51.22,2.13
3671387,Puerto Nariño,75,CO,1612330041,100,-3.7703,-70.3831,75.2,1.95
2396853,Omboué,98,GA,1612330041,89,-1.5746,9.2618,77.11,5.88
5110365,Broome,90,US,1612330041,86,42.2506,-75.833,26.01,17.27
2374583,Bubaque,32,GW,1612330041,67,11.2833,-15.8333,77.25,7.16
516647,Nyandoma,20,RU,1612330041,94,61.669,40.1991,0.86,2.75
2610343,Vestmanna,40,FO,1612330041,86,62.1564,-7.1664,32,10.36
3398612,Guajará,50,BR,1612330041,94,-2.9667,-57.6667,74.82,1.79
3374083,Bathsheba,40,BB,1612330041,69,13.2167,-59.5167,78.8,19.57
2138555,Poum,100,NC,1612330041,79,-20.2333,164.0167,77.68,23.89
1259385,Port Blair,44,IN,1612330041,64,11.6667,92.75,82.47,16.89
5919850,Chapais,40,CA,1612330042,79,49.7834,-74.8492,12.2,10.36
2137773,Vao,68,NC,1612330042,84,-22.6667,167.4833,76.12,40.22
1572151,Nha Trang,40,VN,1612330042,65,12.25,109.1833,80.6,21.85
3355672,Lüderitz,4,NA,1612329782,89,-26.6481,15.1594,63.1,6.15
513898,Otradnoye,90,RU,1612330042,93,59.7775,30.8181,21.2,13.42
6620339,Karratha,43,AU,1612330042,75,-20.7377,116.8463,85.15,21.79
3837702,San Fernando del Valle de Catamarca,100,AR,1612330042,99,-28.4696,-65.7852,61,3
4032369,Pangai,75,TO,1612330042,84,-19.8,-174.35,84.2,2.3
2122090,Pevek,100,RU,1612330043,90,69.7008,170.3133,7.81,7.83
4160021,Jacksonville,1,US,1612329770,65,30.3322,-81.6556,43,8.05
1611424,Chai Badan,0,TH,1612330043,25,15.2,101.1333,98.01,13.44
145724,Lucapa,100,AO,1612330043,98,-8.4192,20.7447,65.8,1.81
1622318,Waingapu,96,ID,1612330043,84,-9.6567,120.2641,79.16,9.69
1006984,East London,0,ZA,1612330044,73,-33.0153,27.9116,75.2,4.61
2192362,Christchurch,34,NZ,1612330028,60,-43.5333,172.6333,71.6,6.91
2025630,Chara,32,RU,1612330044,73,56.9064,118.2631,-18.4,2.1
3440777,Rocha,99,UY,1612330044,96,-34.4833,-54.3333,68.29,3.51
2017155,Saskylakh,100,RU,1612330044,90,71.9167,114.0833,-4.11,11.48
1490042,Tashtagol,100,RU,1612330044,95,52.7657,87.8894,24.6,2.71
2738381,Lata,98,PT,1612330045,96,40.1629,-8.3327,57.99,4
6148373,Sioux Lookout,75,CA,1612330045,86,50.1001,-91.917,23,8.05
2271968,Aljezur,91,PT,1612330045,100,37.3191,-8.8033,57,5.01
1486321,Yar-Sale,91,RU,1612330045,95,66.8333,70.8333,6.28,2.98
2122783,Katangli,82,RU,1612330045,80,51.7102,143.2326,-19.68,15.64
6104820,Pinawa,96,CA,1612330045,97,50.1489,-95.8811,24.78,12.15
1337613,Kulhudhuffushi,93,MV,1612330045,69,6.6221,73.07,81.45,5.77
946058,Mthatha,75,ZA,1612329768,68,-31.5889,28.7844,69.8,5.75
2392087,Porto-Novo,20,BJ,1612330045,89,6.4965,2.6036,82.4,9.22
3897347,Calama,0,CL,1612330046,28,-22.4667,-68.9333,51.8,9.22
964420,Port Elizabeth,0,ZA,1612330046,64,-33.918,25.5701,73.4,2.3
2155415,New Norfolk,14,AU,1612330046,35,-42.7826,147.0587,68,4
3698359,Chicama,60,PE,1612330046,72,-7.8447,-79.1469,70.95,5.64
3105522,Bereda,50,ES,1612330046,91,43.2686,-7.5406,46.99,13
4845585,Westport,90,US,1612329837,80,41.1415,-73.3579,28.99,11.5
3531368,Celestún,20,MX,1612330046,66,20.8667,-90.4,63.99,5.61
921772,Moroni,94,KM,1612329915,68,-11.7022,43.2551,82.89,1.77
1269323,Jammalamadugu,0,IN,1612330047,61,14.8333,78.4,80.6,11.5
2063056,Port Augusta,61,AU,1612330047,26,-32.5,137.7667,88,11.5
3448903,São João da Barra,78,BR,1612330047,86,-21.6403,-41.0511,76.35,15.75
3041732,Mariehamn,90,AX,1612330047,86,60.0973,19.9348,24.8,11.5
250441,Safut,75,JO,1612330047,66,32.0336,35.8332,50,7.76
2016907,Severomuysk,63,RU,1612330047,85,56.1481,113.4267,-24.16,4.74
6180550,Whitehorse,1,CA,1612330048,70,60.7161,-135.0538,-14.8,6.91
1272476,Doda,78,IN,1612330048,37,33.1333,75.5667,55.49,3.15
3460087,Jardim,86,BR,1612330048,77,-21.4803,-56.1381,75.33,2.98
5866063,Kenai,90,US,1612330048,85,60.5544,-151.2583,12,10.36
2160735,Lakes Entrance,82,AU,1612330048,71,-37.8811,147.981,64.99,4
3380290,Sinnamary,49,GF,1612330048,89,5.3833,-52.95,76.98,11.45
5949601,Eston,90,CA,1612330048,85,51.1501,-108.7514,16,14.97
3052639,Fertőszentmiklós,0,HU,1612330048,87,47.59,16.8752,41,11.5
2063042,Port Hedland,40,AU,1612330049,62,-20.3167,118.5667,89.6,18.41
2427637,Mongo,0,TD,1612330049,22,12.1844,18.693,65.79,5.75
1623197,Tual,99,ID,1612330049,77,-5.6667,132.75,82.71,17.85
3430863,Mar del Plata,84,AR,1612329896,94,-38.0023,-57.5575,66.99,3.44
1808963,Handan,0,CN,1612330049,31,36.6006,114.4678,52.84,6.08
2221513,Tignère,0,CM,1612330049,30,7.3667,12.65,62.98,1.7
3418910,Upernavik,96,GL,1612330049,82,72.7868,-56.1549,-8.75,4
4944903,Nantucket,90,US,1612329851,93,41.2835,-70.0995,35.6,17.27
1510689,Baykit,94,RU,1612330049,85,61.67,96.37,-7.49,2.08
2015306,Tiksi,100,RU,1612330049,92,71.6872,128.8694,-2.2,17.54
459692,Grobiņa,75,LV,1612330050,74,56.5352,21.1678,28.4,7.7
1526041,Atasū,97,KZ,1612330050,92,48.6814,71.6433,19.27,8.55
1624041,Ternate,3,ID,1612330050,72,0.8,127.4,83.12,10.04
6144195,Senneterre,90,CA,1612330050,92,48.3835,-77.2328,14,16.11
1859964,Kaseda-shirakame,20,JP,1612330050,43,31.4167,130.3167,48.2,12.66
1337605,Mahibadhoo,100,MV,1612330050,79,3.7833,72.9667,82,21.9
2644210,Liverpool,40,GB,1612329934,93,53.4106,-2.9779,46.99,8.05
1488903,Turukhansk,100,RU,1612330051,91,65.8167,87.9833,-5.37,9.73
2643044,Margate,100,GB,1612330051,81,51.3813,1.3862,48,1.99
4255151,Bud,54,US,1612330051,84,39.447,-86.1758,28,10.92
1614295,Pattaya,0,TH,1612330051,56,12.9333,100.8833,95,3.53
3665202,Aripuanã,100,BR,1612330051,98,-9.1667,-60.6333,73.2,1.19
4898015,Joliet,1,US,1612330051,93,41.525,-88.0817,19.99,6.08
3388145,São Raimundo Nonato,31,BR,1612330051,83,-9.0153,-42.6994,71.37,1.66
2134814,Sola,34,VU,1612330051,79,-13.8833,167.55,82.04,22.48
3047896,Mosonmagyaróvár,100,HU,1612330051,93,47.8679,17.2699,34,1.01
542322,Krasnokholm,100,RU,1612330051,96,51.5979,54.1567,33.6,9.62
3465373,Correntina,85,BR,1612330052,88,-13.3433,-44.6367,68.58,1.9
3464008,Esmeraldas,0,BR,1612330052,73,-19.7625,-44.3139,71.6,3.44
3860443,Comodoro Rivadavia,0,AR,1612330052,56,-45.8667,-67.5,71.6,8.05
2013258,Vrangel',4,RU,1612330052,81,42.7297,133.0839,13.14,18.92
935215,Saint-Philippe,20,RE,1612330052,58,-21.3585,55.7679,87.8,3.44
2381334,Atar,16,MR,1612330052,24,20.5169,-13.0499,65.34,6.31
777682,Skjervøy,75,NO,1612330052,92,70.0311,20.9714,6.8,2.3
2427455,Moundou,0,TD,1612330052,23,8.5667,16.0833,68.83,3.11
2445704,Diffa,0,NE,1612330052,22,13.3154,12.6113,65.64,10.47
610612,Aktau,90,KZ,1612330053,81,43.65,51.2,44.6,6.71
3374333,Praia,0,CV,1612330053,78,14.9215,-23.5087,69.8,13.8
1246294,Galle,54,LK,1612330002,71,6.0367,80.217,83.44,0.74
3919998,Cobija,81,BO,1612330053,88,-11.0267,-68.7692,74.66,2.26
942511,Vryburg,100,ZA,1612330053,90,-26.9566,24.7284,62.69,10
7671223,Kloulklubed,75,PW,1612330053,66,7.0419,134.2556,87.8,10.36
2156643,Mount Gambier,18,AU,1612330053,38,-37.8333,140.7667,78.8,10.36
3929631,San Isidro,0,PE,1612330053,83,-12.1167,-77.05,69.8,6.91
4034551,Faanui,0,PF,1612330053,75,-16.4833,-151.75,81.77,15.48
1185095,Teknāf,3,BD,1612330053,32,20.8624,92.3058,77.76,5.06
5880054,Barrow,1,US,1612329825,68,71.2906,-156.7887,-25.6,14.97
2450173,Taoudenni,87,ML,1612330054,26,22.6783,-3.9836,67.05,12.62
3653159,Píllaro,75,EC,1612330054,100,-1.1667,-78.5333,42.8,2.3
2685750,Östersund,90,SE,1612330054,85,63.1792,14.6357,1.99,4.16
244878,Biltine,0,TD,1612330054,21,14.5333,20.9167,67.12,8.57
2953537,Bad Bramstedt,99,DE,1612330054,40,53.9167,9.8833,32,12.03
3443061,Chui,86,UY,1612330054,93,-33.6971,-53.4616,71.13,4.18
3386213,Touros,20,BR,1612330054,88,-5.1989,-35.4608,75.2,3.44
3388456,São José da Coroa Grande,19,BR,1612330054,84,-8.8978,-35.1478,77.25,7.29
2303611,Esim,0,GH,1612330055,87,4.8699,-2.2405,77.97,4.54
986717,Kruisfontein,0,ZA,1612330055,49,-34.0033,24.7314,71.76,6.11
1498205,Muromtsevo,100,RU,1612330055,98,56.3724,75.2418,30.83,12.3
3664243,Feijó,100,BR,1612330055,83,-8.1642,-70.3536,72.63,1.74
5697939,North Platte,1,US,1612330055,86,41.1239,-100.7654,24.8,4.61
2634739,Warrington,40,GB,1612330055,93,53.3925,-2.5802,46,8.05
3423146,Ilulissat,0,GL,1612330055,65,69.2167,-51.1,-5.8,20.71
2439155,Tanout,0,NE,1612330055,25,14.9709,8.8879,61.84,14.32
654363,Kankaanpää,20,FI,1612330056,85,61.8,22.4167,10.99,5.75
5746545,Portland,90,US,1612330056,81,45.5234,-122.6762,42.8,9.22
2015179,Tommot,100,RU,1612330057,80,58.9564,126.2925,-23.3,11.68
3531177,Champotón,0,MX,1612330057,76,19.35,-90.7167,63.54,7.63
2185329,Otane,0,NZ,1612330057,50,-39.8833,176.6333,73.99,5.99
148105,Hadrut,46,AZ,1612330057,52,39.52,47.0318,46.44,4
1783988,Mizhou,0,CN,1612330057,51,35.9947,119.3975,49.12,14.65
525426,Sobolevo,100,RU,1612330057,97,54.4299,31.8996,16.47,10.49
1513087,Nurota,0,UZ,1612330057,87,40.5614,65.6886,42.8,6.91
3939761,Hualmay,84,PE,1612330057,78,-11.0964,-77.6139,69.21,6.15
2246901,Oussouye,0,SN,1612330058,88,12.485,-16.5469,68,4.61
1507638,Chunoyar,100,RU,1612330058,93,57.4467,97.3217,10.94,9.17
3156980,Florø,0,NO,1612330058,86,61.5996,5.0328,23,9.22
3690608,Zorritos,96,PE,1612329790,70,-3.6805,-80.6782,79.03,3.65
1254367,Tirumullaivāsal,1,IN,1612330058,66,11.2333,79.8333,80.35,14.41
3374210,São Filipe,0,CV,1612330058,79,14.8961,-24.4956,71.53,9.26
6949678,Taitung City,40,TW,1612330058,53,22.7583,121.1444,73.4,14.97
6111632,Port Alberni,100,CA,1612330059,93,49.2413,-124.8028,37.99,2.1
4262318,North Vernon,91,US,1612329933,77,39.0062,-85.6236,30,1.01
3675504,Manaure,29,CO,1612330059,80,11.7751,-72.4445,76.69,6.4
529368,Marfino,0,RU,1612330059,86,55.7028,37.3822,15.8,6.71
3653967,Muisne,45,EC,1612330059,86,0.6,-80.0333,76.91,2.3
5345609,El Centro,1,US,1612330059,59,32.792,-115.563,64.99,2.39
1803331,Linxia Chengguanzhen,1,CN,1612330059,52,35.6003,103.2064,37.54,3.09
214389,Kaniama,100,CD,1612330059,88,-7.5667,24.1833,65.64,2.42
3133311,Ulvik,0,NO,1612330059,90,60.5672,6.9187,14,1.99
287832,Ibrā’,43,OM,1612330059,42,22.6906,58.5334,69.84,0.89
2013392,Vilyuysk,100,RU,1612330060,84,63.7553,121.6247,-28.84,8.63
1183880,Bahawalpur,2,PK,1612330060,24,29.4,71.6833,68.02,5.99
3576994,Cockburn Town,1,TC,1612330060,73,21.4612,-71.1419,73.85,15.28
1813016,Songyang,18,CN,1612330060,33,34.4553,113.0281,54.63,12.73
1528998,Yumen,94,CN,1612330060,56,40.2833,97.2,34.32,9.08
2173911,Broken Hill,0,AU,1612330060,18,-31.95,141.4333,84.2,9.22
5815136,Washougal,90,US,1612330060,81,45.5826,-122.3534,42.8,5.75
3421719,Narsaq,0,GL,1612330061,48,60.9167,-46.05,15.8,9.22
3357247,Gobabis,61,NA,1612330061,73,-22.45,18.9667,66.76,5.12
2429344,Kyabé,13,TD,1612330061,22,9.4515,18.9449,70.36,5.21
2341656,Gashua,0,NG,1612330061,20,12.871,11.0482,64.96,10.71
4726521,San Patricio,40,US,1612330061,82,28.017,-97.5169,55.4,5.75
3662342,São Gabriel da Cachoeira,68,BR,1612330062,98,-0.1303,-67.0892,72.52,1.92
695379,Rovenki,100,UA,1612329797,100,48.0833,39.3776,42.17,5.61
2126710,Beringovskiy,100,RU,1612330062,96,63.05,179.3167,9.99,6.87
3354077,Opuwo,21,NA,1612330062,48,-18.0607,13.84,64.62,3.2
5856516,‘Āhuimanu,1,US,1612330062,73,21.4447,-157.8378,75.2,4.61
5983720,Iqaluit,90,CA,1612330062,76,63.7506,-68.5145,-16.6,2.3
2138592,Pouembout,100,NC,1612330062,90,-21.1333,164.9,72.68,16.06
608271,Shubarkuduk,99,KZ,1612330063,95,49.1447,56.4872,29.07,12.26
489495,Sredniy Ikorets,100,RU,1612330063,97,51.0675,39.7584,32.52,7.07
2381972,Adrar,52,MR,1612330063,27,20.5022,-10.0711,64.96,6.64
3581514,San Lazaro,0,BZ,1612330063,80,18.0387,-88.6622,58.96,2.1
1215502,Banda Aceh,32,ID,1612330063,65,5.5577,95.3222,85.86,7.02
5503914,Fallon,40,US,1612330063,53,39.4735,-118.7774,46.4,13.8
3665913,Villa del Rosario,58,CO,1612329996,58,7.8339,-72.4742,73.36,3.89
2191562,Dunedin,73,NZ,1612329901,81,-45.8742,170.5036,57,1.01
3386622,Taquaritinga do Norte,78,BR,1612330063,100,-7.9031,-36.0442,64.71,3.53
5969025,Haines Junction,94,CA,1612330064,76,60.7522,-137.5108,-22,2.15
653272,Kemijärvi,2,FI,1612330064,94,66.7131,27.4306,4.8,4.79
1083239,Ambatofinandrahana,30,MG,1612330064,72,-20.55,46.8,65.57,4.38
3448332,São Pedro do Sul,64,BR,1612330064,93,-29.6206,-54.1789,72.61,4.23
4956335,Yarmouth,90,US,1612330064,93,41.7057,-70.2286,36,9.22
2177069,Ballina,40,AU,1612330064,57,-28.8667,153.5667,78.8,14.97
3664659,Carauari,100,BR,1612330064,98,-4.8828,-66.8958,73.2,0.87
2120048,Ust-Nera,44,RU,1612330064,74,64.5667,143.2,-27.87,3.78
2289049,Ferkessédougou,0,CI,1612330065,23,9.6,-5.2,67.33,4.61
5044290,Saint Anthony,1,US,1612330065,79,45.0205,-93.218,19.99,3.44
2911795,Hainichen,63,DE,1612330065,86,50.9667,13.1167,46.99,13.82
3836669,San Rafael,11,AR,1612330065,50,-34.6177,-68.3301,64.62,1.63
58933,Garoowe,70,SO,1612330065,55,8.4054,48.4845,64.87,13.29
876123,Lumeje,100,AO,1612330065,97,-11.55,20.7833,65.34,4.43
935214,Saint-Pierre,20,RE,1612330065,58,-21.3393,55.4781,87.8,3.44
5914132,Campbell River,90,CA,1612330065,93,50.0163,-125.2446,39,2.3
1733874,Beaufort,20,MY,1612330065,74,5.3473,115.7455,84.2,9.22
3837213,San Juan,54,AR,1612330066,40,-31.5375,-68.5364,66.79,2.28
2035511,Panshi,52,CN,1612329948,86,42.9422,126.0561,7.59,12.03
2895569,Itzehoe,98,DE,1612330066,91,53.921,9.5153,30.99,10
1649150,Bengkulu,100,ID,1612330066,61,-3.8004,102.2655,86.74,7.23
902620,Mwinilunga,100,ZM,1612330066,96,-11.7358,24.4293,62.76,2.08
2065594,Mount Isa,40,AU,1612329980,22,-20.7333,139.5,102.2,11.5
248843,Jāwā,75,JO,1612330066,66,31.8525,35.9393,50,6.91
6696260,Matane,100,CA,1612330066,100,48.8286,-67.522,28.4,31.07
64814,Bandarbeyla,77,SO,1612330066,65,9.4942,50.8122,73.53,17.47
5367788,Lompoc,90,US,1612330049,94,34.6391,-120.4579,53.6,3.44
2013459,Verkh-Usugli,0,RU,1612330067,75,52.7,115.1667,-7.58,3
3833883,Trelew,0,AR,1612330067,30,-43.249,-65.3051,74.12,13.4
3658666,Cuenca,88,EC,1612330067,88,-2.8833,-78.9833,57.2,5.75
6690296,Saint-Joseph,20,RE,1612330067,58,-21.3667,55.6167,87.8,3.44
1701054,Marawi,79,PH,1612330067,83,7.9986,124.2928,82,7
3628473,San Cristobal,75,VE,1612330067,61,7.7669,-72.225,67.08,1.3
1184845,Ahmadpur East,8,PK,1612330067,23,29.1431,71.2598,68.11,7.52
2125693,Evensk,100,RU,1612330067,92,61.95,159.2333,18.19,30.76
2120769,Talaya,100,RU,1612330067,82,61.3833,152.75,-25.02,8.34
777019,Vardø,40,NO,1612330068,79,70.3705,31.1107,19.4,16.11
5516233,Amarillo,57,US,1612329801,50,35.222,-101.8313,48.99,5.32
2094342,Kavieng,34,PG,1612329790,68,-2.5744,150.7967,84.87,9.42
4566208,Maunabo,0,PR,1612330068,93,18.0072,-65.8993,73,1.01
1513491,Yangi Marg`ilon,0,UZ,1612330068,57,40.4272,71.7189,46.4,2.3
2121197,Sinegor'ye,100,RU,1612330068,81,62.0788,150.477,-26.01,3.29
3667202,Tibú,3,CO,1612330068,83,8.639,-72.7358,74.19,1.97
2523082,Syracuse,0,IT,1612330068,93,37.0881,15.2792,51.01,5.75
1860871,Kadoma,75,JP,1612330069,53,34.7333,135.5833,45,13.8
1028434,Quelimane,40,MZ,1612330069,94,-17.8786,36.8883,78.8,2.35
2112802,Hasaki,20,JP,1612330069,29,35.7333,140.8333,51.8,13.8
1784554,Zhicheng,1,CN,1612330069,72,30.2956,111.5047,57.99,1.28
5563839,Fortuna,90,US,1612330069,93,40.5982,-124.1573,44.01,5.75
2636790,Stornoway,12,GB,1612330069,60,58.2093,-6.3865,37.4,19.57
5577158,Fort Morgan,1,US,1612330069,51,40.2503,-103.8,35.6,3.44
3894426,Coyhaique,0,CL,1612330069,82,-45.5752,-72.0662,53.6,3.44
1067565,Beloha,15,MG,1612330069,68,-25.1667,45.05,83.75,10.33
539385,Kuloy,2,RU,1612330070,93,61.0305,42.4925,1.4,3.02
3381428,Iracoubo,58,GF,1612330070,89,5.4802,-53.2011,77.07,11.34
3662927,Pauini,100,BR,1612330070,98,-7.7136,-66.9764,73.51,2.3
2537881,Safi,100,MA,1612330070,82,32.2994,-9.2372,58.87,4.61
1171868,Loralai,0,PK,1612330070,39,30.3705,68.598,51.22,3.04
933995,Souillac,75,MU,1612330070,70,-20.5167,57.5167,84.2,11.5
4561859,Uniontown,100,US,1612330070,60,39.9001,-79.7164,27,1.99
2137873,Touho,100,NC,1612330070,81,-20.7833,165.2333,75.69,14.79
212360,Kongolo,44,CD,1612330071,94,-5.3833,27,68.77,1.9
3981345,Topolobampo,90,MX,1612330071,82,25.6,-109.05,61,9.19
3138076,Snåase,16,NO,1612330071,87,64.2457,12.3778,6.64,7.02
2519425,Cieza,100,ES,1612330071,78,38.24,-1.4199,53.01,4.36
4957320,Bar Harbor,90,US,1612330071,100,44.3876,-68.2039,34,9.22
2150163,Sawtell,12,AU,1612330071,61,-30.3833,153.1,78.8,11.5
3932145,Pisco,0,PE,1612330071,73,-13.7,-76.2167,71.6,8.05
1521762,Kurchum,92,KZ,1612330071,95,48.5722,83.6542,16.47,2.89
1272411,Dondaicha,21,IN,1612330071,16,21.3333,74.5667,80.4,8.39
2510821,Soller,40,ES,1612330072,94,39.7662,2.7152,55.99,6.91
3395717,Mamanguape,20,BR,1612330072,83,-6.8386,-35.1261,78.8,5.75
364027,Wagar,0,SD,1612330072,65,16.1525,36.2032,70.84,7.9
2027042,Batagay-Alyta,100,RU,1612330072,83,67.8006,130.4114,-31.81,3.44
5127305,Monroe,90,US,1612330051,93,43.1501,-77.6831,32,16.11
2299645,Keta,40,GH,1612330072,89,5.9179,0.9879,82.4,4.61
556268,Ostrovnoy,100,RU,1612330072,96,68.0531,39.5131,20.86,6.58
3598787,Champerico,0,GT,1612330072,93,14.3,-91.9167,66,1.19
927967,Lilongwe,75,MW,1612330072,94,-13.9669,33.7873,68,6.91
3571913,Marsh Harbour,3,BS,1612330072,65,26.5412,-77.0636,61.66,22.66
1503037,Kodinsk,100,RU,1612330073,89,58.6881,99.1844,-3.68,5.41
1540711,Muravlenko,100,RU,1612330073,95,63.7898,74.523,6.62,9.46
1500764,Lebyazh'ye,100,RU,1612330073,98,55.2689,66.4947,23.86,8.1
2444219,Gouré,0,NE,1612330073,17,13.9835,10.2704,71.01,10
1489656,Teya,100,RU,1612330073,88,60.3778,92.6267,-4.72,4.5
2070998,Geraldton,40,AU,1612330073,61,-28.7667,114.6,84.2,24.16
2126199,Cherskiy,9,RU,1612330073,84,68.75,161.3,2.52,3.74
1651531,Ambon City,40,ID,1612330073,78,-3.6954,128.1814,82.4,5.75
3421982,Maniitsoq,0,GL,1612330073,75,65.4167,-52.9,-1.3,7.7
2126682,Bilibino,85,RU,1612330073,87,68.0546,166.4372,2.77,5.59
956767,Secunda,100,ZA,1612330073,98,-26.55,29.1667,57.99,1.01
1253628,Ginda,0,IN,1612330074,28,30.6945,78.4932,57.87,3.76
556575,Imeni Morozova,100,RU,1612330074,68,59.9757,31.0376,23,9.22
2013952,Ust'-Ilimsk,100,RU,1612330074,89,58.0006,102.6619,-1.55,7.38
1049261,Chimoio,75,MZ,1612330074,100,-19.1164,33.4833,71.6,6.91
2028164,Deputatsky,100,RU,1612330074,88,69.3,139.9,-25.98,1.97
3430545,Morón,13,AR,1612330074,95,-34.6534,-58.6198,71.01,1.99
1608033,Pak Phanang,40,TH,1612330074,66,8.3511,100.202,89.6,9.22
2016307,Solnechnyy,100,RU,1612330074,80,50.7214,136.6319,-19.89,4.47
1650434,Bambanglipuro,86,ID,1612330074,81,-7.95,110.2833,79.45,5.68
610445,Balyqshy,89,KZ,1612330075,93,47.0667,51.8667,30.2,8.95
1650232,Banjar,20,ID,1612330075,79,-8.19,114.9675,84.2,6.91
3397763,Jacareacanga,73,BR,1612330075,96,-6.2222,-57.7528,74.07,1.81
1258338,Ratnagiri,0,IN,1612329982,36,16.9833,73.3,85.44,4.81
2122605,Okhotsk,60,RU,1612330075,81,59.3833,143.3,-19.41,16.33
2377457,Nouadhibou,0,MR,1612330075,82,20.931,-17.0347,62.6,13.8
5524849,Lamesa,1,US,1612330075,50,32.7376,-101.951,55,9.22
2108857,Gizo Government Station,98,SB,1612330075,77,-8.103,156.8419,83.23,13.58
1259869,Pernem,0,IN,1612330075,42,15.7167,73.8,86,17.27
3382160,Cayenne,90,GF,1612330076,94,4.9333,-52.3333,78.8,4.61
3421193,Paamiut,0,GL,1612330076,79,61.994,-49.6678,5.52,12.66
1052944,Angoche,87,MZ,1612330076,78,-16.2325,39.9086,80.78,3.4
3450083,Santa Maria,49,BR,1612330076,94,-29.6842,-53.8069,72.37,4.07
3351663,Benguela,67,AO,1612330076,81,-12.5763,13.4055,72.39,3.65
3430708,Mercedes,42,AR,1612330076,76,-34.6515,-59.4307,66,1.01
5197850,Lewistown,90,US,1612329836,80,40.5992,-77.5714,30.2,10.36
6088469,Nipawin,90,CA,1612330076,100,53.3668,-104.0009,17.6,5.75
370737,Malakal,1,SS,1612330076,23,9.5334,31.6605,75.22,3.74
3393536,Olinda,40,BR,1612330077,69,-8.0089,-34.8553,78.8,8.05
286245,Sur,60,OM,1612330077,58,22.5667,59.5289,72.43,4.43
100926,Umluj,0,SA,1612330077,75,25.0213,37.2685,73.78,5.21
1637510,Loa Janan,99,ID,1612330077,70,-0.583,117.095,87.57,2.39
103630,Najrān,0,SA,1612330077,38,17.4924,44.1277,55.4,2.75
1805857,Jieshi,7,CN,1612330077,46,22.8134,115.8257,73.99,18.97
3462103,Grão Mogol,99,BR,1612330077,89,-16.5594,-42.8897,64.38,2.8
1524296,Esil,100,KZ,1612330077,95,51.9556,66.4042,33.12,18.7
2980915,Arrondissement de Saint-Denis,90,FR,1612330077,94,48.9167,2.3333,54,13.8
2082539,Merauke,69,ID,1612330078,69,-8.4667,140.3333,87.15,11.25
2652586,Coleraine,75,GB,1612329910,93,55.1333,-6.6667,41,12.66
779622,Havøysund,40,NO,1612330078,74,70.9963,24.6622,28.4,25.32
2034615,Tahe,0,CN,1612330078,78,52.3333,124.7333,-8.7,11.21
2095038,Kainantu,96,PG,1612330078,89,-6.2887,145.8655,67.71,2.21
3515040,Tulum,3,MX,1612329932,83,20.2167,-87.4667,59.83,4.83
3462916,Frutal,99,BR,1612330078,86,-20.0247,-48.9406,71.46,5.77
286987,Nizwá,45,OM,1612330078,24,22.9333,57.5333,69.96,1.77
1314759,Lashio,0,MM,1612330078,25,22.9333,97.75,79.02,2.06
2110560,Yamada,19,JP,1612330078,82,39.4667,141.95,28.62,20
1795632,Shenjiamen,0,CN,1612330079,73,29.9576,122.298,50.23,15.57
2068110,Kununurra,40,AU,1612329897,59,-15.7667,128.7333,95,6.91
1259693,Pilāni,0,IN,1612330079,21,28.3684,75.6041,72.77,7.07
2094027,Kieta,100,PG,1612330079,79,-6.2167,155.6333,82.38,11.16
2270385,Camacha,75,PT,1612330080,94,33.0833,-16.3333,60.8,4.61
3407762,Amapá,99,BR,1612330080,98,1,-52,71.17,1.68
1805733,Jinchang,4,CN,1612330080,50,38.4953,102.1739,35.26,2.19
5364271,Laguna,20,US,1612330031,76,38.421,-121.4238,52,5.75
1045114,Inhambane,40,MZ,1612330080,94,-23.865,35.3833,78.8,2.89
686090,Asău,34,RO,1612330081,72,46.4333,26.4,37,6.15
1024552,Xai-Xai,81,MZ,1612330081,91,-25.0519,33.6442,77.95,4.07
5797693,Hoquiam,90,US,1612330081,81,46.9809,-123.8893,41,10.36
4513583,Hamilton,40,US,1612330081,80,39.1834,-84.5333,27,10.36
2170089,Craigieburn,20,AU,1612330081,41,-37.6,144.95,77,10.36
1540475,Turtas,65,RU,1612330081,96,58.9417,69.1325,8.76,6.15
5554428,Ketchikan,1,US,1612330081,69,55.3422,-131.6461,37.4,9.22
2309332,Ebebiyin,91,GQ,1612329911,96,2.1511,11.3353,69.69,2.64
1819729,Hong Kong,20,HK,1612330077,38,22.2855,114.1577,73.4,10.36
4193699,Evans,1,US,1612330082,38,33.5337,-82.1307,39.2,10.36
118704,Rāvar,0,IR,1612330082,37,31.2656,56.8055,52.7,0.69
110690,Faya,0,SA,1612330082,29,18.3851,42.4509,59,0.47
2191911,Dargaville,0,NZ,1612330082,54,-35.9333,173.8833,71.74,8.5
3395981,Maceió,40,BR,1612330082,94,-9.6658,-35.7353,73.4,2.3
1308522,Monywa,0,MM,1612330082,30,22.1167,95.1333,79.61,4.38
475955,Velizh,100,RU,1612330082,96,55.6056,31.1967,18.75,9.31
3137469,Sørland,0,NO,1612330082,79,67.667,12.6934,12.2,5.75
1738050,Marabu,40,MY,1612330023,94,4.4148,114.0089,87.01,11.5
524100,Muyezerskiy,1,RU,1612330083,93,63.9333,31.65,-0.47,3.89
3541446,Sagua de Tánamo,81,CU,1612330083,70,20.5819,-75.2414,68.85,5.55
5262680,Merrill,1,US,1612330083,92,45.1805,-89.6835,18,2.98
5905191,Boissevain,90,CA,1612330083,100,49.2306,-100.0559,30,18.41
1258291,Rayachoti,0,IN,1612330083,61,14.05,78.75,80.6,11.5
1791539,Wencheng,0,CN,1612330083,37,33.0559,113.7978,59.7,8.68
2084442,Vanimo,94,PG,1612330083,83,-2.6741,141.3028,81.64,11.92
3832899,Viedma,0,AR,1612330083,73,-40.8135,-62.9967,62.87,11.27
1860321,Kamojimachō-jōgejima,20,JP,1612330083,36,34.0667,134.35,46.4,18.41
2025256,Chumikan,100,RU,1612330084,81,54.7183,135.315,-18.96,18.84
1511646,Andra,55,RU,1612330084,93,62.5147,65.8878,4.08,4.79
615460,Pitsunda,58,GE,1612330084,65,43.1592,40.3378,42.8,4.47
116402,Semnan,0,IR,1612329945,50,35.5729,53.3971,46.29,0.65
1269979,Homnābād,0,IN,1612330084,22,17.7667,77.1333,78.67,7.4
4353925,East Riverdale,90,US,1612330084,59,38.9621,-76.9219,32,9.22
2398430,Mimongo,93,GA,1612330084,93,-1.6195,11.6068,68.72,0.89
1337612,Dhidhdhoo,100,MV,1612330085,70,6.8833,73.1,81.37,5.1
890516,Gwanda,100,ZW,1612330085,89,-20.9333,29,65.43,8.77
109223,Medina,0,SA,1612329858,67,24.4686,39.6142,62.6,3.44
3489657,Lucea,20,JM,1612330086,60,18.451,-78.1736,73.4,10.36
1529484,Kumul,67,CN,1612330086,64,42.8,93.45,35.19,1.1
5887916,Athabasca,100,CA,1612330086,71,54.7169,-113.2854,1.4,11.5
105298,Jizan,20,SA,1612330023,83,17.3333,42.6667,73.4,12.66
1283334,Birin,1,NP,1612330086,40,26.8865,88.0718,60.8,5.53
3470338,Bataiporã,89,BR,1612330086,91,-22.2953,-53.2711,73.67,1.88
4036284,Alofi,100,NU,1612330087,89,-19.0595,-169.9187,80.6,8.05
261003,Kardamena,40,GR,1612330087,82,36.7814,27.1425,53.6,10.36
1797873,Huai'an,0,CN,1612330087,56,33.5886,119.0192,54.27,13.15
571252,Budogoshch',100,RU,1612330087,97,59.2816,32.4707,21.34,9.89
1040652,Maputo,90,MZ,1612330087,94,-25.9653,32.5892,69.8,16.11
4034496,Fare,0,PF,1612330087,75,-16.7,-151.0167,81.43,13.65
3461370,Imbituba,40,BR,1612330087,94,-28.24,-48.6703,77,3.44
3614835,Barra Patuca,24,HN,1612330087,79,15.8,-84.2833,72.19,14.5
1524801,Shīeli,3,KZ,1612330087,72,44.1667,66.75,37.45,2.21
98182,Baghdad,0,IQ,1612329821,71,33.3406,44.4009,46.4,4.61
321082,Bingöl,75,TR,1612329931,80,38.8847,40.4939,30.2,4.61
1633034,Palu,37,ID,1612330088,63,-0.8917,119.8707,87.24,5.08
3939168,Huarmey,21,PE,1612330088,74,-10.0681,-78.1522,69.24,4.99
2122574,Ola,51,RU,1612330088,84,59.5833,151.2833,-10.82,11.43
1252942,Wardha,5,IN,1612330088,25,20.75,78.6167,78.8,3.44
2654728,Bridlington,100,GB,1612330088,90,54.0831,-0.1919,42.01,4
107304,Buraidah,20,SA,1612330088,51,26.326,43.975,59,9.22
2249782,Kolda,0,SN,1612330088,65,12.8833,-14.95,64,2.57
608872,Makat,93,KZ,1612330088,87,47.6469,53.3463,34.99,9.33
5861897,Fairbanks,1,US,1612330051,76,64.8378,-147.7164,-18.4,3.44
3579925,St. George's,40,GD,1612329829,74,12.0564,-61.7485,80.6,14.97
1538637,Seversk,100,RU,1612330089,79,56.6006,84.8864,16,11.9
3450188,Santa Isabel,79,BR,1612330089,100,-23.3156,-46.2214,66.2,3.44
3465748,Conceição do Coité,82,BR,1612329869,89,-11.5639,-39.2828,71.06,8.14
2037252,Genhe,45,CN,1612330089,79,50.7833,121.5167,-14.35,3.6
1801850,Luorong,75,CN,1612330089,48,24.4058,109.6086,73.27,1.23
3418076,Borgarnes,0,IS,1612330089,51,64.5383,-21.9206,35.6,17.27
3840300,Presidencia Roque Sáenz Peña,93,AR,1612330090,99,-26.7852,-60.4388,72,1.01
3904906,Santa Cruz de la Sierra,75,BO,1612330090,94,-17.8,-63.1667,75.2,5.75
2446796,Bilma,0,NE,1612330090,35,18.6853,12.9164,57.67,10.92
5101798,Newark,90,US,1612330090,74,40.7357,-74.1724,32,8.05
1529376,Korla,1,CN,1612330090,64,41.7597,86.1469,35.26,2.91
1121143,Zabul Province,0,AF,1612330090,68,32.25,67.25,39.76,3.89
4936159,Fall River,90,US,1612329801,98,41.7015,-71.1551,33.01,5.01
