City_ID,City,Cloudiness,Country,Date,Humidity,Lat,Lng,Max_Temp,Wind_Speed
1645133,Dumai,100,ID,1612062421,54,1.6833,101.45,85.3,3.42
3579925,St. George's,20,GD,1612062421,83,12.0564,-61.7485,78.8,20.71
6201424,Mataura,98,NZ,1612061858,35,-46.1927,168.8643,73.81,3.65
2126199,Cherskiy,0,RU,1612061856,83,68.75,161.3,-35.21,2.01
2173911,Broken Hill,34,AU,1612062402,28,-31.95,141.4333,84.2,14.97
6156307,Stettler,35,CA,1612062220,100,52.3168,-112.7186,3.2,5.75
6137462,Saint-Augustin,100,CA,1612061868,92,51.226,-58.6502,26.76,18.79
934322,Mahébourg,20,MU,1612061867,83,-20.4081,57.7,78.8,6.91
3831208,Qaanaaq,99,GL,1612061861,77,77.484,-69.3632,-5.04,2.46
2643123,Manchester,100,GB,1612062353,80,53.4809,-2.2374,34,9.22
3466165,Cidreira,98,BR,1612061872,89,-30.1811,-50.2056,75.61,10.11
5855927,Hilo,90,US,1612061868,57,19.7297,-155.09,78.8,9.22
6148373,Sioux Lookout,90,CA,1612061869,93,50.1001,-91.917,21.2,8.05
2136825,Isangel,75,VU,1612061898,74,-19.55,169.2667,84.2,11.5
3423146,Ilulissat,90,GL,1612061880,66,69.2167,-51.1,6.8,4.61
5359864,Isla Vista,1,US,1612062406,87,34.4133,-119.861,50,5.75
2377457,Nouadhibou,0,MR,1612062422,63,20.931,-17.0347,66.2,17.27
2075265,Busselton,0,AU,1612061856,44,-33.65,115.3333,87.01,1.99
3347019,Mossamedes,97,AO,1612061908,75,-15.1961,12.1522,72.79,5.08
3016274,Gérardmer,90,FR,1612062422,93,48.0735,6.8779,44.6,9.22
5106841,Albany,10,US,1612062281,55,42.6001,-73.9662,12,3
5866583,Saint Paul Harbor,1,US,1612061858,51,57.79,-152.4072,32,19.57
296852,Erzin,75,TR,1612062423,100,36.9559,36.2,46.4,23.02
2163355,Hobart,40,AU,1612061859,52,-42.8794,147.3294,73.99,12.66
3680090,Juradó,66,CO,1612062423,83,7.1053,-77.7641,76.73,4.34
2264557,Ponta do Sol,15,PT,1612061882,75,32.6667,-17.1,57,5.01
4513583,Hamilton,90,US,1612061867,93,39.1834,-84.5333,33.01,9.22
1261853,Narasannapeta,98,IN,1612062423,64,18.4167,84.05,76.51,5.64
2134814,Sola,100,VU,1612062413,77,-13.8833,167.55,81.52,13
1500973,Kyzyl,0,RU,1612062246,81,51.7,94.45,-7.15,4.34
1278458,Arang,0,IN,1612062370,58,21.2,81.9667,55.4,3.44
627904,Hrodna,46,BY,1612062424,97,53.6884,23.8258,19.27,11.77
609404,Khromtau,72,KZ,1612062424,98,50.2503,58.4347,12.02,8.25
3874787,Punta Arenas,0,CL,1612061856,71,-53.15,-70.9167,48.2,17.27
3421719,Narsaq,75,GL,1612061863,30,60.9167,-46.05,39.2,28.77
3652764,Puerto Ayora,41,EC,1612062299,89,-0.7393,-90.3518,78.01,7
2155415,New Norfolk,7,AU,1612061864,38,-42.7826,147.0587,73.99,3
964420,Port Elizabeth,0,ZA,1612061875,88,-33.918,25.5701,60.8,3.44
3471451,Arraial do Cabo,5,BR,1612061862,83,-22.9661,-42.0278,76.66,25.77
1307741,Myitkyina,76,MM,1612062167,60,25.3833,97.4,65.21,3.33
541795,Krasnyye Barrikady,90,RU,1612062424,100,46.2045,47.8535,28.4,8.95
2276492,Harper,19,LR,1612062424,87,4.375,-7.7169,78.4,6.82
1259385,Port Blair,19,IN,1612061912,69,11.6667,92.75,82.9,12.06
4035715,Avarua,75,CK,1612062143,70,-21.2078,-159.775,84.2,4.61
4030556,Rikitea,0,PF,1612062121,72,-23.1203,-134.9692,79.38,11.52
546105,Nikolskoye,75,RU,1612061855,93,59.7035,30.7861,24.8,4.47
4032243,Vaini,75,TO,1612061857,79,-21.2,-175.2,86,13.8
2112802,Hasaki,20,JP,1612061893,34,35.7333,140.8333,50,19.57
2246451,Saint-Louis,100,SN,1612062425,18,16.3333,-15,72.73,9.89
2016708,Arbagar,20,RU,1612062425,83,51.9438,116.2805,-20.61,2.51
1525798,Balkhash,0,KZ,1612062425,73,46.844,74.9804,15.8,17.9
2112309,Katsuura,20,JP,1612061883,37,35.1333,140.3,52,16.11
2070998,Geraldton,0,AU,1612061869,16,-28.7667,114.6,102.2,6.91
3466704,Castro,100,BR,1612061856,96,-24.7911,-50.0119,64.63,4.03
5880054,Barrow,90,US,1612061868,69,71.2906,-156.7887,-16.6,4.61
5282297,Bethel,0,US,1612062426,68,41.3712,-73.414,17.01,6.8
3369157,Cape Town,75,ZA,1612061822,82,-33.9258,18.4232,68,8.05
3884373,La Serena,90,CL,1612062426,94,-29.9078,-71.2542,64.4,0.74
2396518,Port-Gentil,100,GA,1612061874,80,-0.7193,8.7815,77.02,7.31
3389822,Salinópolis,100,BR,1612062426,86,-0.6136,-47.3561,79,10.6
5563839,Fortuna,90,US,1612061874,81,40.5982,-124.1573,52,21.85
694137,Shevchenkove,90,UA,1612062426,93,49.6959,37.1735,37.4,11.18
1651810,Airai,100,TL,1612061858,100,-8.9266,125.4092,63.7,6.35
57000,Hobyo,67,SO,1612061868,74,5.3505,48.5268,75.2,14.99
2246901,Oussouye,59,SN,1612062427,23,12.485,-16.5469,70.56,6.58
4036284,Alofi,90,NU,1612062407,78,-19.0595,-169.9187,80.6,10.36
777019,Vardø,100,NO,1612062136,95,70.3705,31.1107,25.63,18.63
962367,Richards Bay,100,ZA,1612062267,94,-28.783,32.0377,73.99,2.98
3883457,Lebu,2,CL,1612061894,87,-37.6167,-73.65,55.8,13.4
4944903,Nantucket,1,US,1612061758,49,41.2835,-70.0995,19.99,16.11
1131162,Panjāb,100,AF,1612062427,92,34.388,67.0233,20.35,4.52
3372964,Lagoa,98,PT,1612061872,96,39.05,-27.9833,61.72,23.15
935215,Saint-Philippe,0,RE,1612061877,65,-21.3585,55.7679,79,5.75
4020109,Atuona,62,PF,1612061871,75,-9.8,-139.0333,79.11,16.8
2035669,Lianhe,2,CN,1612062428,75,47.1333,129.2667,-0.4,1.45
3430863,Mar del Plata,0,AR,1612061863,51,-38.0023,-57.5575,61,18.41
2194098,Ahipara,13,NZ,1612061637,57,-35.1667,173.1667,68.99,5.75
3893629,Coquimbo,90,CL,1612061642,94,-29.9533,-71.3436,64.4,3.44
3893726,Constitución,21,CL,1612061860,92,-35.3333,-72.4167,59,8.19
2063036,Port Lincoln,73,AU,1612061875,60,-34.7333,135.8667,68.67,13.09
3418910,Upernavik,80,GL,1612061858,85,72.7868,-56.1549,-9.8,5.32
2120591,Tilichiki,96,RU,1612062428,90,60.4667,166.1,-10.25,16.02
1106677,Bambous Virieux,20,MU,1612061873,83,-20.3428,57.7575,78.8,6.91
361055,Ismailia,0,EG,1612062428,39,30.6043,32.2723,55.9,11.77
3614663,Brus Laguna,98,HN,1612062429,96,15.75,-84.4833,71.4,1.68
2110227,Butaritari,56,KI,1612061865,79,3.0707,172.7902,81.19,18.23
3517970,Pochutla,3,MX,1612062429,83,15.7432,-96.4661,77,1.01
2208248,Kaitangata,100,NZ,1612061912,74,-46.2817,169.8464,61,8.01
1855476,Nichinan,20,JP,1612062429,47,31.6,131.3667,53.6,4.61
286621,Salalah,40,OM,1612061899,72,17.0151,54.0924,66.2,3.44
5122534,Jamestown,90,US,1612062410,79,42.097,-79.2353,19,8.05
6170031,Tuktoyaktuk,40,CA,1612061854,67,69.4541,-133.0374,-34.6,4.61
2514651,Los Llanos de Aridane,40,ES,1612061882,82,28.6585,-17.9182,64.4,11.5
1185115,Sirajganj,0,BD,1612062429,49,24.45,89.7167,58.42,6.64
3480908,La Asuncion,22,VE,1612062429,86,11.0333,-63.8628,76.64,11.61
4034551,Faanui,68,PF,1612061880,68,-16.4833,-151.75,82.09,7.29
2206874,Waipawa,0,NZ,1612062404,72,-41.4122,175.5153,69.01,9.22
3397763,Jacareacanga,100,BR,1612062408,93,-6.2222,-57.7528,72.68,1.48
1735799,Sri Aman,20,MY,1612061626,89,1.2376,111.4621,80.6,1.14
611847,Sukhumi,100,GE,1612062430,54,43.0033,41.0153,47.62,3.65
4328254,Iberia,90,US,1612062430,94,29.9502,-91.7507,66.2,11.5
4021858,Guerrero Negro,64,MX,1612061593,71,27.9769,-114.0611,59.54,12.28
3925212,Cacoal,100,BR,1612062430,94,-11.4386,-61.4472,73.36,3.58
3366880,Hermanus,1,ZA,1612062407,91,-34.4187,19.2345,61,8.84
3421765,Nanortalik,100,GL,1612061878,90,60.1432,-45.2371,29.14,6.55
3655131,La Libertad,0,EC,1612062430,88,-2.2333,-80.9,77,4.61
5546220,Saint George,1,US,1612062401,70,37.1041,-113.5841,44.01,3.44
2206939,Bluff,98,NZ,1612062124,72,-46.6,168.3333,58.32,11.59
359783,Assiut,0,EG,1612061858,65,27.181,31.1837,44.6,4.61
545467,Konëvo,86,RU,1612062431,96,62.1215,39.3192,13.6,5.08
2643044,Margate,5,GB,1612061882,61,51.3813,1.3862,39.99,4
2126123,Chokurdakh,18,RU,1612061871,85,70.6333,147.9167,-30.1,8.5
2512186,Puerto del Rosario,90,ES,1612062431,88,28.5004,-13.8627,64.4,20.71
3870243,Taltal,4,CL,1612061668,75,-25.4,-70.4833,65.37,6.64
2159220,Mackay,90,AU,1612062431,74,-21.15,149.2,86,16.11
1015776,Bredasdorp,0,ZA,1612061870,90,-34.5322,20.0403,61,6.55
100926,Umluj,0,SA,1612062432,54,25.0213,37.2685,63.86,10.69
3833367,Ushuaia,20,AR,1612061856,71,-54.8,-68.3,48.2,23.02
921772,Moroni,88,KM,1612062432,75,-11.7022,43.2551,80.31,8.12
1507390,Dikson,0,RU,1612061870,80,73.5069,80.5464,-33.68,5.7
3381041,Mana,100,GF,1612062432,86,5.6592,-53.7767,77.5,13.78
3985710,Cabo San Lucas,20,MX,1612061675,82,22.8909,-109.9124,66.2,3.44
2018735,Nyurba,99,RU,1612061886,80,63.2842,118.3319,-39.05,3.36
933995,Souillac,20,MU,1612061864,83,-20.5167,57.5167,78.8,6.91
6185377,Yellowknife,1,CA,1612062404,76,62.456,-114.3525,-16.01,4.61
964432,Port Alfred,0,ZA,1612061653,92,-33.5906,26.891,62.01,2.46
1521315,Līsakovsk,11,KZ,1612062432,94,52.5369,62.4936,6.73,4.18
3722286,Léogâne,49,HT,1612062433,65,18.5108,-72.6339,77,4.61
2119538,Yelizovo,90,RU,1612062433,47,53.1873,158.3805,30.2,20.13
1278985,Alappuzha,8,IN,1612062433,80,9.49,76.3264,78.13,4.81
5848280,Kapaa,40,US,1612061768,78,22.0752,-159.319,75.2,18.41
2269142,Colares,86,PT,1612062433,84,38.7992,-9.4469,59,12.97
1528252,Ivanovka,0,KG,1612062433,47,42.8878,75.085,33.8,6.71
6165406,Thompson,90,CA,1612061860,92,55.7435,-97.8558,14,2.3
359792,Aswān,0,EG,1612061656,46,24.0934,32.907,51.53,7.7
608872,Makat,95,KZ,1612061910,96,47.6469,53.3463,24.1,10.8
5383465,Pittsburg,75,US,1612062434,71,38.028,-121.8847,55,3.44
1562414,Vung Tau,100,VN,1612062434,63,10.346,107.0843,78.71,4.63
2122090,Pevek,4,RU,1612061864,84,69.7008,170.3133,-33.2,3.04
2171099,Codrington,0,AU,1612061861,58,-38.2667,141.9667,66.47,11.54
3420846,Qaqortoq,75,GL,1612062434,30,60.7167,-46.0333,39.2,26.46
2090021,Namatanai,100,PG,1612061876,66,-3.6667,152.4333,84.49,13.27
6167817,Torbay,90,CA,1612061876,100,47.6666,-52.7314,28.99,9.22
4031574,Provideniya,100,RU,1612061865,83,64.3833,-173.3,-8.91,14.56
293842,Kiryat Gat,0,IL,1612062300,57,31.61,34.7642,55,1.01
3443061,Chui,100,UY,1612061867,93,-33.6971,-53.4616,68.34,15.59
219414,Basoko,88,CD,1612062435,82,1.2391,23.616,71.35,1.34
884927,Mutoko,100,ZW,1612062435,100,-17.397,32.2268,62.78,5.19
4726521,San Patricio,1,US,1612061881,88,28.017,-97.5169,69.8,17.27
3601402,Savannah Bight,5,HN,1612062435,89,16.45,-85.85,77,18.84
1106643,Quatre Cocos,20,MU,1612062435,83,-20.2078,57.7625,80.01,6.91
935214,Saint-Pierre,0,RE,1612061871,65,-21.3393,55.4781,79,5.75
2038665,Alihe,100,CN,1612062314,82,50.5667,123.7167,-10.82,0.11
1282256,Hithadhoo,10,MV,1612061857,79,-0.6,73.0833,81.79,13.98
3372707,Ribeira Grande,99,PT,1612061869,93,38.5167,-28.7,62.92,19.6
3146487,Raudeberg,100,NO,1612061901,100,61.9875,5.1352,32,6.91
2647311,Haverfordwest,88,GB,1612062436,80,51.8017,-4.9691,35.6,9.22
53654,Mogadishu,20,SO,1612061875,84,2.0371,45.3438,74.34,15.41
1213855,Sibolga,74,ID,1612062436,56,1.7427,98.7792,84.67,3.47
347612,Talā,0,EG,1612062436,49,30.6803,30.9429,51.87,9.35
1185270,Bāndarban,0,BD,1612062310,38,22.1965,92.2262,72.57,2.62
525426,Sobolevo,100,RU,1612061863,97,54.4299,31.8996,17.64,5.37
5779548,Payson,40,US,1612062436,74,40.0444,-111.7321,32,4.12
1513491,Yangi Marg`ilon,100,UZ,1612061908,55,40.4272,71.7189,32,9.22
3414079,Olafsvik,27,IS,1612061906,89,64.8945,-23.7142,22.5,15.77
2644210,Liverpool,100,GB,1612062378,93,53.4106,-2.9779,32,8.05
2088659,Panguna,99,PG,1612061914,67,-6.3164,155.4848,80.85,6.71
3374210,São Filipe,100,CV,1612061906,60,14.8961,-24.4956,74.39,11.07
4033543,Teahupoo,75,PF,1612062437,83,-17.8333,-149.2667,77,19.57
2123814,Leningradskiy,0,RU,1612061903,82,69.3833,178.4167,-27.18,4.61
2611060,Tvøroyri,75,FO,1612062437,69,61.5556,-6.8111,32,18.41
4031637,Lavrentiya,65,RU,1612061857,84,65.5833,-171,-13.86,7.49
2234794,Banyo,0,CM,1612062437,28,6.75,11.8167,64.13,4.18
2323675,Sapele,14,NG,1612062437,87,5.8941,5.6767,78.39,2.24
1529660,Aksu,46,CN,1612062184,77,41.1231,80.2644,21.24,2.53
1735106,George Town,20,MY,1612061867,57,5.4112,100.3354,84,9.22
2084442,Vanimo,100,PG,1612061869,68,-2.6741,141.3028,85.3,10.2
3897334,Calbuco,0,CL,1612062438,87,-41.768,-73.1273,51.8,2.3
3424607,Tasiilaq,75,GL,1612061877,33,65.6145,-37.6368,21.2,11.5
2171465,Clarence Town,90,AU,1612062438,83,-32.5833,151.7833,77,19.57
108410,Riyadh,0,SA,1612061618,53,24.6877,46.7219,50,3.44
3372472,Vila Franca do Campo,75,PT,1612061911,94,37.7167,-25.4333,63,12.66
2015306,Tiksi,100,RU,1612061861,86,71.6872,128.8694,-26.99,4.63
2022572,Khatanga,40,RU,1612061860,78,71.9667,102.5,-47.29,1.7
3137469,Sørland,41,NO,1612061889,89,67.667,12.6934,30.7,7.54
5972291,Havre-St-Pierre,90,CA,1612062439,68,50.2334,-63.5986,24.8,6.91
1215502,Banda Aceh,70,ID,1612061837,70,5.5577,95.3222,81.61,12.64
523392,Naryan-Mar,100,RU,1612061913,93,67.6713,53.087,1.22,11.21
352733,Marsá Maţrūḩ,0,EG,1612062439,63,31.3525,27.2453,59,17.27
3646767,Caraballeda,40,VE,1612062439,88,10.6112,-66.8522,75.2,7.99
4930956,Boston,1,US,1612061817,48,42.3584,-71.0598,16,12.66
1244926,Hambantota,20,LK,1612061855,94,6.1241,81.1185,77,6.91
3157656,Fillan,75,NO,1612062439,69,63.6064,8.9696,33.8,11.5
1271685,Gangānagar,0,IN,1612062373,38,29.9167,73.8833,52.25,4.65
556268,Ostrovnoy,100,RU,1612061882,95,68.0531,39.5131,15.35,7.52
3421193,Paamiut,29,GL,1612061912,89,61.994,-49.6678,25.16,15.08
3649408,Altagracia de Orituco,36,VE,1612062440,83,9.8601,-66.3814,70.38,6.96
3393536,Olinda,40,BR,1612062440,69,-8.0089,-34.8553,78.8,5.75
2020121,Mayya,100,RU,1612062440,59,61.7333,130.2811,-45.4,3.2
149812,Sokoni,58,TZ,1612062440,81,-6.4333,39.55,80.65,14.27
1648759,Bima,100,ID,1612061776,64,-8.4667,118.7167,86.81,2.84
2145554,Ulladulla,90,AU,1612061914,94,-35.35,150.4667,69.01,8.05
515966,Oksovskiy,93,RU,1612062440,97,62.6062,39.8984,16.07,5.57
1082243,Ambilobe,0,MG,1612062440,92,-13.2,49.05,72.61,2.26
1006984,East London,71,ZA,1612061859,84,-33.0153,27.9116,70.34,4.12
2156643,Mount Gambier,40,AU,1612061606,46,-37.8333,140.7667,71.6,6.91
86049,Jalu,0,LY,1612062440,46,29.0331,21.5482,57.81,10.69
1071296,Antalaha,0,MG,1612062441,87,-14.9003,50.2788,75.56,4.47
161901,Kaka,100,TM,1612062441,50,37.3482,59.6143,49.1,9.06
3395981,Maceió,40,BR,1612062438,94,-9.6658,-35.7353,75.2,2.3
1490256,Talnakh,0,RU,1612061854,71,69.4865,88.3972,-31.23,7.14
3466980,Caravelas,1,BR,1612062441,87,-17.7125,-39.2481,74.48,3.87
2138522,Poya,38,NC,1612062441,64,-21.35,165.15,81.88,10.98
2074865,Carnarvon,2,AU,1612061861,58,-24.8667,113.6333,91.4,4.61
735640,Komotini,64,GR,1612062441,83,41.1228,25.3964,45.34,2.82
5955902,Fort Nelson,40,CA,1612062441,77,58.8053,-122.7002,-11.2,3.44
3837056,San Luis,15,AR,1612062442,75,-33.295,-66.3356,61.65,21
2409914,Bonthe,32,SL,1612061857,87,7.5264,-12.505,76.93,2.26
3899695,Ancud,0,CL,1612061891,76,-41.8697,-73.8203,53.01,3.44
95788,Hīt,96,IQ,1612061864,59,33.6416,42.8251,49.3,8.9
164947,Salamiyah,100,SY,1612062442,90,35.0113,37.0532,46.18,7.38
2132606,Samarai,100,PG,1612061621,72,-10.6167,150.6667,85.87,15.99
5364271,Laguna,90,US,1612061869,58,38.421,-121.4238,55.4,6.24
5882953,Aklavik,100,CA,1612061875,75,68.2191,-135.0107,-27.4,1.14
187896,Mandera,0,KE,1612062442,80,3.9366,41.867,67.86,4.16
2391893,Savé,35,BJ,1612062442,86,8.0425,2.486,76.03,1.74
2065594,Mount Isa,40,AU,1612061861,22,-20.7333,139.5,102.2,11.5
2121385,Severo-Kuril'sk,100,RU,1612061883,95,50.6789,156.125,25.18,34.52
3374083,Bathsheba,40,BB,1612062443,73,13.2167,-59.5167,78.8,21.85
1812256,Dongsheng,0,CN,1612062443,72,39.8161,109.9776,27.18,26.53
3981391,Tomatlán,0,MX,1612062443,65,19.9333,-105.25,70.57,2.35
933692,Kang,64,BW,1612062443,81,-23.6752,22.7876,69.6,4.09
3447785,Seropédica,0,BR,1612062443,83,-22.7439,-43.7075,84.2,4.41
1855540,Naze,75,JP,1612061899,51,28.3667,129.4833,62.6,6.91
3628503,San Carlos,50,VE,1612062443,71,9.6612,-68.5827,74.34,3.71
1214488,Meulaboh,71,ID,1612061856,67,4.1363,96.1285,82.36,1.52
2035601,Mergen,100,CN,1612062444,88,49.1833,125.2167,-10.61,6.69
2610343,Vestmanna,75,FO,1612062444,69,62.1564,-7.1664,32,18.41
6050066,La Ronge,2,CA,1612062184,79,55.1001,-105.2842,12.2,1.83
3448903,São João da Barra,2,BR,1612061740,81,-21.6403,-41.0511,77.13,20.76
3981432,Todos Santos,17,MX,1612062444,83,23.45,-110.2167,68,1.99
900056,Nyimba,100,ZM,1612062444,95,-14.5566,30.8149,67.98,2.73
2024626,Dzhebariki-Khaya,99,RU,1612061888,77,62.2167,135.8,-43.06,0.49
2122104,Petropavlovsk-Kamchatskiy,100,RU,1612062444,47,53.0452,158.6483,30.2,20.13
2034761,Shulan,100,CN,1612062445,91,44.4167,126.95,7.29,4.88
3984997,San Quintín,0,MX,1612061870,77,30.4833,-115.95,56.98,5.75
5276609,Two Rivers,90,US,1612062445,80,44.1539,-87.5693,30.99,21.85
5975034,High Prairie,51,CA,1612062445,73,55.4334,-116.4858,15.8,3.44
1178560,Ghauspur,40,PK,1612062445,76,28.1391,69.0831,50,4.61
1337617,Muli,16,MV,1612062445,77,2.9167,73.5667,81.63,13.65
2017155,Saskylakh,100,RU,1612061858,83,71.9167,114.0833,-33.23,10.67
2015179,Tommot,73,RU,1612061888,78,58.9564,126.2925,-32.8,0.22
3416888,Grindavik,75,IS,1612061593,73,63.8424,-22.4338,19.4,5.75
1728675,Balabac,61,PH,1612061911,74,7.9868,117.0645,82.13,22.73
5859699,College,90,US,1612061904,77,64.8569,-147.8028,-4,0.6
2033536,Yakeshi,100,CN,1612061896,88,49.2833,120.7333,-10.03,4.76
2181625,Te Anau,85,NZ,1612062405,47,-45.4167,167.7167,65.88,7.52
3887127,Iquique,0,CL,1612062446,68,-20.2208,-70.1431,69.8,8.05
2180815,Tuatapere,100,NZ,1612061884,48,-46.1333,167.6833,66.43,2.39
2994497,Menton,75,FR,1612062446,82,43.7765,7.5044,51.8,11.5
2729907,Longyearbyen,20,SJ,1612061637,59,78.2186,15.6401,-5.8,19.57
3167520,Santa Marinella,74,IT,1612062446,91,42.0345,11.8536,46.99,13
4470244,Havelock,1,US,1612062446,60,34.8791,-76.9013,37,5.75
3939168,Huarmey,67,PE,1612062446,77,-10.0681,-78.1522,71.2,6.51
1052373,Beira,68,MZ,1612062207,86,-19.8436,34.8389,78.1,4.56
554830,Izhma,100,RU,1612062446,93,65.0083,53.9113,3.11,9.15
1495022,Petukhovo,74,RU,1612061855,93,55.0692,67.9019,10.13,6.2
5554428,Ketchikan,1,US,1612062447,100,55.3422,-131.6461,30.2,5.46
1715015,Dicabisagan,100,PH,1612062447,80,17.0818,122.4157,72.07,12.77
6089245,Norman Wells,75,CA,1612061883,75,65.282,-126.8329,-27.4,2.3
2685750,Östersund,90,SE,1612062447,85,63.1792,14.6357,7,1.74
2019867,Mokhsogollokh,100,RU,1612062447,80,61.4681,128.9203,-35.39,2.71
3843123,Neuquén,40,AR,1612062447,63,-38.9516,-68.0591,64.4,2.3
3395458,Maragogi,100,BR,1612062448,83,-9.0122,-35.2225,77.31,7.36
5983720,Iqaluit,1,CA,1612062448,71,63.7506,-68.5145,-7.01,16.11
1178338,Gilgit,0,PK,1612062448,51,35.9221,74.3087,25.63,2.93
5044290,Saint Anthony,90,US,1612061852,86,45.0205,-93.218,32,6.91
3932145,Pisco,0,PE,1612061662,73,-13.7,-76.2167,69.8,14.97
2137748,Voh,20,NC,1612061889,55,-20.9667,164.7,84.74,9.01
58933,Garoowe,0,SO,1612062448,91,8.4054,48.4845,60.6,9.08
3149577,Kolvereid,44,NO,1612062448,96,64.8655,11.6047,22.33,8.48
2694560,Ljungby,0,SE,1612062448,100,56.8332,13.9408,15.8,1.14
1529484,Kumul,0,CN,1612062449,80,42.8,93.45,26.47,6.62
122915,Nahavand,70,IR,1612062449,88,34.1885,48.377,29.23,3.67
3868626,Valparaíso,75,CL,1612062449,87,-33.0393,-71.6273,64.99,4.54
3452440,Prata,73,BR,1612062256,59,-19.3072,-48.9242,77.45,3.56
1734971,Pekan,20,MY,1612062449,83,3.4836,103.3996,77,4.61
3874930,Puerto Varas,0,CL,1612062449,87,-41.3195,-72.9854,51.8,2.3
2100933,Ambunti,99,PG,1612062449,65,-4.2365,142.8448,86.5,4.97
2210554,Sirte,0,LY,1612062449,39,31.2089,16.5887,62.85,14.18
1633419,Padang,69,ID,1612061646,66,-0.9492,100.3543,82.78,3.56
2219235,Ubari,0,LY,1612062450,41,26.5921,12.7805,54.32,8.48
3894406,Coihueco,90,CL,1612062450,90,-36.6167,-71.8333,60.8,10.36
3355672,Lüderitz,0,NA,1612061864,67,-26.6481,15.1594,63.77,17.02
494884,Shenkursk,95,RU,1612062450,96,62.1091,42.896,15.01,6.73
2343252,Epe,32,NG,1612062450,93,6.5841,3.9834,77.22,4.12
2171722,Charters Towers,98,AU,1612062450,47,-20.1,146.2667,87.46,9.31
2027786,Amga,100,RU,1612061913,79,60.8953,131.9608,-32.57,2.89
1529376,Korla,0,CN,1612061900,81,41.7597,86.1469,23.11,5.01
3187694,Virovitica,100,HR,1612062451,91,45.8319,17.3839,39.99,6.78
1174451,Keti Bandar,0,PK,1612062451,75,24.1447,67.4497,67.06,6.89
2630299,Hofn,0,IS,1612062158,83,64.2539,-15.2082,23.58,13.89
882100,Rusape,100,ZW,1612062451,93,-18.5278,32.1284,60.17,3.27
545353,Konosha,97,RU,1612062451,97,60.9736,40.257,19,10.02
2297810,Mumford,70,GH,1612061875,90,5.2618,-0.759,78.94,8.79
5576064,Craig,90,US,1612062451,86,40.5153,-107.5464,26.6,1.77
934479,Grand Gaube,10,MU,1612061710,82,-20.0064,57.6608,78.01,1.99
3460064,Jatai,100,BR,1612062451,83,-17.8814,-51.7144,69.49,2.91
6255012,Flinders,96,AU,1612061910,95,-34.5833,150.8552,68,3
2629833,Husavik,90,IS,1612062452,79,66.0449,-17.3389,14,4.61
3513563,Kralendijk,20,BQ,1612062452,78,12.15,-68.2667,78.8,16.11
605155,Kiruna,90,SE,1612062452,93,67.8557,20.2251,17.6,11.5
1640660,Gondanglegi,93,ID,1612062452,73,-7.7479,112.0132,83.89,4.61
4921100,Hammond,90,US,1612062238,93,41.5834,-87.5,30.2,17.27
496358,Severnyy,90,RU,1612062415,93,50.677,36.5532,35.6,13.42
6145668,Shediac,20,CA,1612062384,62,46.2198,-64.5411,12.2,6.91
1168700,Ormara,0,PK,1612062452,65,25.2088,64.6357,67.57,9.15
1487615,Vengerovo,100,RU,1612062453,91,55.6848,76.7471,-4.23,12.03
3906466,Riberalta,100,BO,1612062453,91,-10.9833,-66.1,75.34,0.92
5126555,Melville,1,US,1612062453,43,40.7934,-73.4151,27,6.55
2077895,Alice Springs,83,AU,1612061870,20,-23.7,133.8833,98.01,16.11
5924351,Clyde River,90,CA,1612061892,92,70.4692,-68.5914,-4,5.75
3141667,Roald,75,NO,1612062412,93,62.5833,6.1333,32,8.05
1719274,Candelaria,88,PH,1612062453,67,13.9311,121.4233,80.01,14
5905393,Bonavista,98,CA,1612062454,93,48.6499,-53.1147,30,4.61
5110365,Broome,1,US,1612061862,79,42.2506,-75.833,12.2,10.36
2092164,Lorengau,99,PG,1612062454,82,-2.0226,147.2712,82.58,11.86
3430443,Necochea,59,AR,1612062454,68,-38.5473,-58.7368,57.99,10.31
5870133,Nome,1,US,1612061642,77,64.5011,-165.4064,-5.8,4.61
1492342,Shchelkun,75,RU,1612062454,85,56.3034,60.9483,14,4.47
5558953,Arcata,90,US,1612062305,87,40.8665,-124.0828,53.01,5.75
5557293,Sitka,40,US,1612061859,60,57.0531,-135.33,39.2,11.5
607610,Zhangaözen,82,KZ,1612062454,88,43.3,52.8,36.07,10.13
3929611,San Jerónimo,100,PE,1612062454,73,-11.9472,-75.2829,49.37,2.24
981827,Louis Trichardt,3,ZA,1612062455,94,-23.0439,29.9032,66.58,3.04
777682,Skjervøy,100,NO,1612062455,88,70.0311,20.9714,27.79,5.17
3584003,Puerto El Triunfo,20,SV,1612062455,73,13.2833,-88.55,78.8,6.91
2021041,Kyra,100,RU,1612062455,90,49.5776,111.9753,7.07,4.23
610864,Khani,20,GE,1612062455,61,41.9563,42.9566,44.6,12.66
2126785,Belaya Gora,100,RU,1612062455,85,68.5333,146.4167,-29.25,2.33
3471551,Arenápolis,99,BR,1612062455,88,-14.4503,-56.8461,73.74,3.4
1517323,Zhanakorgan,86,KZ,1612062455,76,43.9098,67.2495,36,4.34
2309528,Luba,20,GQ,1612062455,89,3.4568,8.5547,78.8,6.91
1506254,Gornyy,35,RU,1612062455,84,55.1153,83.9059,-18.26,8.9
3671418,Puerto López,54,CO,1612062456,51,4.0845,-72.956,80.91,5.28
3382160,Cayenne,75,GF,1612061892,89,4.9333,-52.3333,80.6,11.5
3576994,Cockburn Town,20,TC,1612062358,56,21.4612,-71.1419,73.4,13.8
625144,Minsk,75,BY,1612062456,86,53.9,27.5667,24.8,11.18
515879,Oktyabr'skiy,100,RU,1612062456,97,54.4815,53.471,24.55,7.2
2260535,Brazzaville,20,CG,1612062456,100,-4.2658,15.2832,71.6,1.14
2062276,Roebourne,91,AU,1612062456,39,-20.7833,117.1333,95.79,9.24
2514301,Mahon,30,ES,1612062456,81,39.8885,4.2658,50,6.91
6690296,Saint-Joseph,0,RE,1612062456,65,-21.3667,55.6167,79,5.75
4362001,Mayo,1,US,1612062162,59,38.8876,-76.5119,32,3.13
2396853,Omboué,100,GA,1612061661,88,-1.5746,9.2618,74.75,3.11
2229752,Kumba,0,CM,1612062457,92,4.6363,9.4469,72.57,0.83
2094342,Kavieng,99,PG,1612061866,73,-2.5744,150.7967,83.46,14
2618795,Klaksvík,75,FO,1612062411,69,62.2266,-6.589,32,18.41
3838859,Río Gallegos,0,AR,1612062457,61,-51.6226,-69.2181,48.2,5.75
337152,Gebre Guracha,34,ET,1612062457,46,9.8,38.4,48.63,4.36
1855342,Nishihara,20,JP,1612061896,34,26.1842,127.7558,68,14.97
5655240,Great Falls,1,US,1612062457,54,47.5002,-111.3008,30,11.5
2016680,Shirokiy,81,RU,1612062457,86,49.758,129.523,-19.32,4.97
1861416,Ishigaki,75,JP,1612061877,49,24.3448,124.1572,71.6,13.8
710473,Chyhyryn,100,UA,1612062457,92,49.0838,32.6555,34.21,16.58
1510689,Baykit,1,RU,1612061878,76,61.67,96.37,-33.2,1.14
2026861,Berdigestyakh,94,RU,1612062458,79,62.0989,126.6992,-40.04,2.77
6453316,Tromsø,99,NO,1612061913,92,69.6496,18.957,21.99,2.3
5851349,Nānākuli,1,US,1612062458,57,21.3906,-158.1547,78.8,8.05
3675504,Manaure,69,CO,1612062401,73,11.7751,-72.4445,77.13,15.48
3641351,El Tigre,5,VE,1612062458,76,8.8875,-64.2454,75.65,14.79
3361934,Saldanha,0,ZA,1612061858,92,-33.0117,17.9442,63.37,2.84
3109254,Segovia,97,ES,1612062458,79,41.1667,-4,46.99,11.99
1863495,Gushikawa,1,JP,1612061871,49,26.3544,127.8686,68,9.22
172515,Abu Samrah,100,SY,1612062459,83,35.3029,37.1841,48.31,21.36
3445026,Vila Velha,40,BR,1612061899,78,-20.3297,-40.2925,78.8,6.91
3933104,Pangoa,87,PE,1612062459,94,-12.1167,-73,66.56,2.06
3083826,Szczecinek,32,PL,1612062459,87,53.7079,16.6994,23,8.43
3451190,Rio de Janeiro,0,BR,1612062305,74,-22.9028,-43.2075,87.01,8.05
1254709,Tezu,24,IN,1612062459,26,27.9167,96.1667,68.09,1.54
3526756,Isla Mujeres,40,MX,1612062343,60,21.2311,-86.731,78.01,9.22
2021093,Kuytun,21,RU,1612062459,82,54.3419,101.5036,-30.93,8.61
2037494,Erdaojiang,71,CN,1612062459,86,41.7764,126.0319,25.07,2.82
5746545,Portland,90,US,1612062083,81,45.5234,-122.6762,46.99,8.05
6111862,Port Hardy,90,CA,1612061895,87,50.6996,-127.4199,44.6,17.27
1835848,Seoul,0,KR,1612061841,41,37.5683,126.9778,39.2,10.36
3608828,Iralaya,94,HN,1612061913,84,15,-83.2333,76.75,12.91
1648636,Bitung,40,ID,1612062460,83,1.4451,125.1824,82.4,4.61
1185098,Gazipur,40,BD,1612062460,82,23.9981,90.423,60.8,9.22
704422,Krasnoarmiys'k,100,UA,1612062460,90,48.282,37.1758,36.93,17.18
3377301,Mabaruma,34,GY,1612062192,98,8.2,-59.7833,73.49,4.47
2022564,Khatassy,100,RU,1612062460,59,61.9036,129.6383,-45.4,2.93
1505579,Inta,100,RU,1612061874,88,66.0317,60.1659,-2.67,8.03
5847411,Kahului,40,US,1612061862,57,20.8947,-156.47,78.8,17.27
4967563,Houlton,1,US,1612062460,66,46.1262,-67.8403,3.2,9.22
103630,Najrān,0,SA,1612061900,30,17.4924,44.1277,57.2,4.61
1488903,Turukhansk,16,RU,1612062461,76,65.8167,87.9833,-31.94,5.66
3669352,San Luis de Palenque,59,CO,1612062461,54,5.4214,-71.7317,79.3,6.08
3059821,Hurbanovo,90,SK,1612062461,74,47.8698,18.1923,34,6.91
1485712,Yurginskoye,100,RU,1612062461,95,56.8189,67.3921,11.08,6.35
2071860,Esperance,0,AU,1612061875,41,-33.8667,121.9,78.8,6.91
1486321,Yar-Sale,100,RU,1612062461,87,66.8333,70.8333,-16.89,17.81
3832899,Viedma,53,AR,1612061862,70,-40.8135,-62.9967,55.99,7.47
763513,Nur,12,PL,1612062461,76,52.6683,22.3221,23,5.01
1814087,Dalian,75,CN,1612062461,81,38.9122,121.6022,42.8,11.18
3415720,Hvolsvollur,94,IS,1612062462,91,63.7533,-20.2243,21.18,8.28
2121025,Srednekolymsk,100,RU,1612062462,84,67.45,153.6833,-32.62,4.99
3598787,Champerico,74,GT,1612062462,91,14.3,-91.9167,66.99,1.01
4032369,Pangai,75,TO,1612062462,84,-19.8,-174.35,84.2,5.75
5954718,Flin Flon,99,CA,1612062463,95,54.7682,-101.865,5.59,3.13
6137381,Saint-Ambroise,74,CA,1612062463,78,48.5501,-71.3324,-0.99,8.05
1651103,Atambua,100,ID,1612061893,91,-9.1061,124.8925,75.7,8.86
1526041,Atasū,100,KZ,1612062463,89,48.6814,71.6433,20.19,9.24
3622547,Paraíso,20,CR,1612062463,73,9.8383,-83.8656,69.8,19.57
3628473,San Cristobal,93,VE,1612062463,73,7.7669,-72.225,64.76,1.43
286245,Sur,0,OM,1612062463,51,22.5667,59.5289,65.44,0.74
187585,Marsabit,3,KE,1612062464,52,2.3284,37.9899,63.72,15.43
481985,Torzhok,100,RU,1612062464,97,57.0436,34.9622,15.06,5.7
1242110,Kalmunai,96,LK,1612062464,84,7.4167,81.8167,78.1,5.19
4033557,Tautira,75,PF,1612062412,83,-17.7333,-149.15,77,19.57
1852357,Shimoda,20,JP,1612062464,54,34.6667,138.95,51.8,8.05
3182210,Belluno,100,IT,1612062464,94,46.145,12.2214,43,1.01
4469160,Greenville,1,US,1612062464,55,35.6127,-77.3663,34,3.44
1626542,Sorong,100,ID,1612062464,75,-0.8833,131.25,81.55,12.19
2013986,Ust'-Barguzin,100,RU,1612062465,89,53.45,108.9833,-7.11,5.82
696108,Pryluky,100,UA,1612062465,99,50.5932,32.3876,28.51,8.7
3386213,Touros,20,BR,1612061911,88,-5.1989,-35.4608,77,3.44
1528998,Yumen,0,CN,1612061874,66,40.2833,97.2,28.29,27.67
2367656,Bafilo,6,TG,1612062465,26,9.35,1.2667,65.68,3.09
2331005,Malumfashi,0,NG,1612062465,28,11.7853,7.6218,61.63,7.61
1214026,Sabang,80,ID,1612062465,77,5.8933,95.3214,81.1,21.72
5991056,Kenora,90,CA,1612062465,93,49.8167,-94.4337,23,4.61
2562247,Marsaxlokk,0,MT,1612062465,88,35.8419,14.5431,62.01,10.36
7601762,Bairiki Village,40,KI,1612062413,70,1.3292,172.9752,86,10.36
2172880,Byron Bay,90,AU,1612062466,69,-28.65,153.6167,82.4,11.5
3421319,Nuuk,0,GL,1612062466,86,64.1835,-51.7216,17.6,16.11
1807700,Huaibei,26,CN,1612062466,45,33.9744,116.7917,54.32,8.93
197745,Garissa,0,KE,1612062466,76,-0.4536,39.6401,71.96,4.7
104515,Makkah al Mukarramah,0,SA,1612062466,42,21.4267,39.8261,65.14,3.98
110690,Faya,0,SA,1612062466,71,18.3851,42.4509,51.8,2.44
1512223,Abalak,100,RU,1612062466,96,58.1286,68.5944,12.31,9.19
1253628,Ginda,0,IN,1612062466,36,30.6945,78.4932,45.99,2.46
3516685,Seybaplaya,99,MX,1612062467,67,19.65,-90.6667,73.15,6.87
5394329,Selma,1,US,1612062467,76,36.5708,-119.6121,53.6,4.61
1256739,Shahdol,0,IN,1612062467,31,23.2833,81.35,58.44,3.22
2455290,Kidal,12,ML,1612061904,26,18.4411,1.4078,62.42,9.04
4404233,Poplar Bluff,90,US,1612062467,87,36.757,-90.3929,52,13.8
1863997,Fukuechō,40,JP,1612062467,58,32.6881,128.8419,55.4,4.61
2109528,Buala,85,SB,1612061913,69,-8.145,159.5921,85.86,15.68
142872,Asadābād,72,IR,1612062468,91,34.7824,48.1185,29.86,6.4
2035644,Nanpiao,100,CN,1612062468,91,41.0982,120.7479,20.25,4.52
64814,Bandarbeyla,96,SO,1612061913,71,9.4942,50.8122,73.4,15.12
4859343,Grinnell,90,US,1612062468,86,41.743,-92.7224,33.8,3.44
5258957,La Crosse,90,US,1612062172,86,43.8014,-91.2396,30.99,11.5
3454005,Piaçabuçu,97,BR,1612062468,83,-10.4056,-36.4344,77.54,8.21
2094144,Kerema,99,PG,1612062468,71,-7.9631,145.7785,83.3,3.42
2126710,Beringovskiy,100,RU,1612061893,94,63.05,179.3167,6.06,30.24
1795565,Shenzhen,0,CN,1612062341,47,22.5455,114.0683,72,7.52
2037252,Genhe,91,CN,1612062468,83,50.7833,121.5167,-12.82,0.29
2137773,Vao,86,NC,1612061895,79,-22.6667,167.4833,76.3,21.16
315621,Emirdağ,94,TR,1612062469,89,39.0197,31.15,36.88,3.83
315795,Elbistan,100,TR,1612062469,97,38.2059,37.1983,26.65,1.7
2649738,Fairlie,100,GB,1612062469,100,55.756,-4.8556,32,1.14
3573374,The Valley,40,AI,1612062398,83,18.217,-63.0578,77,10.36
2121373,Seymchan,100,RU,1612062469,78,62.8833,152.4333,-27.38,11.61
5354943,Half Moon Bay,20,US,1612062469,76,37.4636,-122.4286,53.6,3.44
2392087,Porto-Novo,40,BJ,1612061900,83,6.4965,2.6036,82.4,9.22
1649150,Bengkulu,100,ID,1612062469,90,-3.8004,102.2655,75.15,3.04
611274,Ureki,40,GE,1612062469,37,41.9956,41.7786,53.6,19.57
1806687,Yong’an,0,CN,1612062469,71,39.6957,113.6871,31.37,20.07
3580733,Bodden Town,20,KY,1612062470,73,19.2833,-81.25,77,10.36
462914,Zhizdra,90,RU,1612062470,93,53.746,34.7395,23,6.71
6316343,Alta Floresta,86,BR,1612062210,97,-9.8756,-56.0861,71.47,2.37
6182212,Williams Lake,75,CA,1612062199,74,52.1415,-122.1445,30.2,17.27
1283240,Kathmandu,20,NP,1612062274,76,27.7167,85.3167,44.6,2.3
7341918,Moba,51,CN,1612062470,60,33.2288,105.0179,37.27,1.83
4078964,Muscle Shoals,90,US,1612062211,47,34.7448,-87.6675,55.99,16.11
1650232,Banjar,40,ID,1612062470,83,-8.19,114.9675,82.4,11.5
2313084,Mangai,100,CD,1612062470,98,-4.05,19.5333,70.09,0.29
2172797,Cairns,40,AU,1612062279,58,-16.9167,145.7667,93.99,13.8
3652758,Puerto Baquerizo Moreno,0,EC,1612062471,83,-0.9,-89.6,77.4,8.95
513898,Otradnoye,75,RU,1612062471,93,59.7775,30.8181,24.8,4.47
124291,Mehrān,0,IR,1612062471,55,33.1222,46.1646,46.78,1.28
3670966,Ráquira,30,CO,1612062471,79,5.5379,-73.632,52.25,4.47
2144528,Warrnambool,10,AU,1612062471,64,-38.3833,142.4833,71.01,10.25
5742974,North Bend,90,US,1612062471,100,43.4065,-124.2243,48.2,7.31
2100633,Arawa,94,PG,1612062415,65,-6.2132,155.5367,85.24,11.03
2315026,Kasongo-Lunda,100,CD,1612062471,94,-6.4667,16.8167,68.2,0.56
1624041,Ternate,100,ID,1612062471,68,0.8,127.4,83.41,5.06
1185239,Mathbaria,0,BD,1612062472,31,22.2876,89.9593,65.26,7.54
189741,Lamu,0,KE,1612062472,88,-2.2717,40.902,75.29,10.85
212730,Kisangani,98,CD,1612062298,88,0.5167,25.2,69.46,0.81
6071618,Medicine Hat,20,CA,1612062472,85,50.0501,-110.6683,8.6,5.75
2013727,Vanavara,25,RU,1612062472,80,60.34,102.2797,-36.76,2.68
1258338,Ratnagiri,0,IN,1612062472,42,16.9833,73.3,76.03,2.98
1180729,Dalbandin,0,PK,1612062472,36,28.8947,64.4101,56.1,4.29
2125906,Dukat,100,RU,1612062472,82,62.55,155.55,-33.61,8.63
485660,Tsimmerbude,75,RU,1612062473,75,54.675,20.1347,33.8,15.66
493997,Shkurinskaya,100,RU,1612062473,84,46.5858,39.3599,38.03,12.59
5866063,Kenai,1,US,1612062448,79,60.5544,-151.2583,17.01,4.61
1283285,Jumla,0,NP,1612062473,37,29.2747,82.1838,41.83,1.1
1246294,Galle,76,LK,1612062417,79,6.0367,80.217,79.74,4.83
1803331,Linxia Chengguanzhen,99,CN,1612061910,75,35.6003,103.2064,28.69,2.98
98182,Baghdad,0,IQ,1612062389,81,33.3406,44.4009,41,4.61
2511180,Santa Cruz de La Palma,40,ES,1612061875,82,28.6835,-17.7642,64.4,11.5
2022773,Khandyga,75,RU,1612062473,77,62.6667,135.6,-44.23,0.69
4218882,Rincon,75,US,1612062191,81,32.296,-81.2354,48.2,4.61
7117100,Vila,100,PT,1612062474,94,42.0304,-8.1588,48,7
3646382,Carupano,5,VE,1612062474,88,10.6678,-63.2585,75.72,10.29
3904906,Santa Cruz de la Sierra,94,BO,1612062405,80,-17.8,-63.1667,76.53,15.88
5367788,Lompoc,1,US,1612061848,82,34.6391,-120.4579,51.8,5.75
4544383,Okmulgee,90,US,1612062474,76,35.6234,-95.9605,48.2,17.27
2142316,Yeppoon,40,AU,1612062305,45,-23.1333,150.7333,87.8,12.66
1253952,Udupi,0,IN,1612062474,78,13.35,74.75,77,4.61
155921,Liwale,100,TZ,1612062474,97,-9.7667,37.9333,70.54,4.18
3572906,Andros Town,20,BS,1612062474,64,24.7,-77.7667,68,8.05
2120048,Ust-Nera,89,RU,1612062475,76,64.5667,143.2,-24.75,8.28
5697939,North Platte,90,US,1612062475,74,41.1239,-100.7654,28.4,12.66
5895424,Bay Roberts,90,CA,1612062475,100,47.5999,-53.2648,28.99,9.22
1819729,Hong Kong,0,HK,1612061583,40,22.2855,114.1577,72,11.99
3446866,Tapiramutá,86,BR,1612062475,98,-11.8472,-40.7914,66.11,6.93
2079582,Alyangula,40,AU,1612062338,70,-13.8483,136.4192,87.8,9.22
1252795,Yanam,28,IN,1612062475,83,16.7333,82.2167,75.2,8.05
2263905,Ribeira Brava,16,PT,1612062475,89,32.65,-17.0667,57,1.99
2108502,Honiara,96,SB,1612061889,80,-9.4333,159.95,82.49,8.61
2641434,Northam,58,GB,1612062476,87,51.0333,-4.2167,39.99,3
4997130,Ingham,90,US,1612062476,68,42.6,-84.3833,26.6,8.05
6111696,Port-Cartier,37,CA,1612062476,68,50.0334,-66.8654,19.4,10.36
3141032,Rubbestadneset,61,NO,1612062476,89,59.8147,5.2681,30,2.57
2027806,Amazar,94,RU,1612062476,79,53.858,120.875,-18.76,0.56
4845585,Westport,1,US,1612062476,49,41.1415,-73.3579,24.01,5.75
609924,Emba,0,KZ,1612062477,92,48.8264,58.1442,15.3,10.29
3839982,Punta Alta,23,AR,1612062408,65,-38.8759,-62.0736,59.4,14.29
3664243,Feijó,100,BR,1612062477,96,-8.1642,-70.3536,73.58,2.28
2318123,Yenagoa,0,NG,1612062477,90,4.9247,6.2642,77.31,2.62
2063056,Port Augusta,100,AU,1612062477,53,-32.5,137.7667,77,13.8
5993072,Kitimat,98,CA,1612062477,82,54.0524,-128.6534,26.01,5.14
3385077,Conde,0,BR,1612062478,88,-7.2597,-34.9075,77,4.61
2033467,Yanji,100,CN,1612062478,79,42.9075,129.5078,10.49,2.93
1061335,Mananjary,18,MG,1612062478,87,-21.2167,48.3333,76.12,3.98
3892454,Diego de Almagro,0,CL,1612062478,55,-26.3667,-70.05,58.57,0.49
2654728,Bridlington,89,GB,1612062478,84,54.0831,-0.1919,37,8.48
1803560,Lingao,17,CN,1612062412,70,19.9103,109.6859,71.51,16.17
1568574,Qui Nhon,100,VN,1612062478,80,13.7667,109.2333,75.02,13.06
6620339,Karratha,90,AU,1612062478,42,-20.7377,116.8463,93.83,8.72
2176639,Batemans Bay,98,AU,1612061898,77,-35.7167,150.1833,69.01,1.99
317844,Çumra,20,TR,1612062478,75,37.5732,32.7745,39.2,5.75
1259231,Pūndri,0,IN,1612062479,49,29.75,76.55,49.41,4.5
4153188,Destin,90,US,1612062479,88,30.3935,-86.4958,62.01,16.11
105298,Jizan,0,SA,1612062479,88,17.3333,42.6667,71.6,1.3
3521108,Progreso,1,MX,1612062479,64,21.2833,-89.6667,73,5.75
2033225,Zhalantun,100,CN,1612062479,85,48,122.7167,-7.74,2.84
3868633,Vallenar,0,CL,1612062318,64,-28.5708,-70.7581,63.9,0.83
2192362,Christchurch,20,NZ,1612062280,63,-43.5333,172.6333,66.2,23.02
1052944,Angoche,100,MZ,1612062479,87,-16.2325,39.9086,77.14,7.2
2154826,Wonthaggi,36,AU,1612062479,63,-38.6044,145.5913,78.01,8.52
1637001,Luwuk,100,ID,1612062399,61,-0.9516,122.7875,84.9,1.5
